%time,field.x,field.y,field.z
1504378069215521911,-4.09545183182,5.67023706436,-0.54983407259
1504378069395245505,-4.04668092728,5.60494852066,-0.552127242088
1504378069532400869,-3.985632658,5.52880954742,-0.5545129776
1504378069676655817,-3.94352769852,5.46880245209,-0.548421263695
1504378069859369775,-3.91179823875,5.41937303543,-0.544414758682
1504378069993395192,-3.87417721748,5.36820220947,-0.536287784576
1504378070152472380,-3.83106851578,5.30571603775,-0.535431742668
1504378070329529515,-3.78706622124,5.24815702438,-0.538320422173
1504378070455943629,-3.73767256737,5.19760990143,-0.535735189915
1504378070631966494,-3.69772338867,5.16717433929,-0.53506141901
1504378070780490296,-3.65329241753,5.13187646866,-0.530259549618
1504378070921033369,-3.61018848419,5.08493947983,-0.521263480186
1504378071076601702,-3.56678557396,5.04199504852,-0.52209097147
1504378071239150817,-3.52338075638,5.00357580185,-0.524318516254
1504378071381178056,-3.48402571678,4.95558023453,-0.527272701263
1504378071541191389,-3.43733930588,4.91768074036,-0.527333974838
1504378071716607014,-3.39597272873,4.88725662231,-0.523907721043
1504378071923764931,-3.34665679932,4.84589338303,-0.533317506313
1504378072236098108,-3.25343847275,4.74080038071,-0.553246498108
1504378072400215087,-3.20996260643,4.69931221008,-0.558282613754
1504378072739006441,-3.12998604774,4.61804580688,-0.55048841238
1504378072883482431,-3.09942269325,4.59450626373,-0.539075136185
1504378073221207014,-3.03991436958,4.54040527344,-0.505231738091
1504378073359484722,-3.01929688454,4.52058029175,-0.479074925184
1504378073690019930,-3.01193904877,4.45020103455,-0.228504687548
1504378073832509305,-3.02574110031,4.40113353729,0.0538191460073
1504378074151970451,-3.05712485313,4.28195905685,0.835210740566
1504378074295195659,-3.07824587822,4.25386714935,1.22383987904
1504378074619144357,-3.08896303177,4.2714138031,1.83389294147
1504378074759683576,-3.07644820213,4.27654409409,2.0572707653
1504378074965674096,-3.05272293091,4.26358366013,2.24888825417
1504378075091798836,-3.02940368652,4.24348640442,2.42888474464
1504378075238988107,-3.01086425781,4.22624444962,2.60150241852
1504378075552382690,-2.94221997261,4.22536325455,2.95235991478
1504378075716306440,-2.8601026535,4.24349737167,3.13028740883
1504378075891738575,-2.75002980232,4.26649522781,3.30534911156
1504378076031341596,-2.62171387672,4.27408695221,3.46565294266
1504378076171233211,-2.47486877441,4.24199724197,3.64605665207
1504378076354853002,-2.33964419365,4.17326068878,3.83609104156
1504378076472730919,-2.21851968765,4.08598279953,4.02683782578
1504378076632591387,-2.11131644249,3.99724698067,4.22187614441
1504378076834184460,-2.00267457962,3.91692972183,4.41472578049
1504378076937221023,-1.89235973358,3.83537554741,4.59736919403
1504378077096806491,-1.78251743317,3.75643205643,4.77070808411
1504378077294048418,-1.69232773781,3.70056414604,4.94214487076
1504378077409842950,-1.62222611904,3.6743209362,5.08453035355
1504378077558941752,-1.5981554985,3.67825293541,5.21269178391
1504378077757516283,-1.59919059277,3.6825363636,5.33121442795
1504378077866341856,-1.61143732071,3.68599915504,5.43933296204
1504378078031518314,-1.62806773186,3.69565796852,5.55074310303
1504378078226195762,-1.63976120949,3.71379876137,5.66037511826
1504378078343550189,-1.65443360806,3.74341225624,5.76039934158
1504378078496028418,-1.66571366787,3.76910352707,5.84794473648
1504378078677655345,-1.67912065983,3.78468203545,5.95456695557
1504378078818095449,-1.69432973862,3.78945970535,6.06489276886
1504378078961612168,-1.69662368298,3.76268744469,6.17678594589
1504378079151549824,-1.68188035488,3.70818567276,6.29075288773
1504378079274805345,-1.63153421879,3.60287499428,6.40164422989
1504378079430410501,-1.55201518536,3.43301272392,6.53607845306
1504378079621756178,-1.49306070805,3.19842743874,6.67598819733
1504378079745711751,-1.41709327698,2.959649086,6.81332969666
1504378079900608626,-1.32115066051,2.69668006897,6.96499872208
1504378080075659928,-1.21883511543,2.43794941902,7.10394477844
1504378080218403313,-1.1144682169,2.16645622253,7.24181652069
1504378080372790292,-1.00728666782,1.89313793182,7.38039398193
1504378080537421282,-0.932829499245,1.62564957142,7.53095388412
1504378080689818209,-0.891687452793,1.40565896034,7.7037820816
1504378080841066334,-0.884794533253,1.25577437878,7.90996646881
1504378081009069927,-0.899924099445,1.17920267582,8.1517457962
1504378081152647271,-0.903796613216,1.11743021011,8.42397594452
1504378081311155604,-0.894284963608,1.08282899857,8.6874332428
1504378081476575917,-0.873701453209,1.0773525238,8.9148979187
1504378081608851281,-0.856000721455,1.09492373466,9.1185131073
1504378081762654823,-0.824337303638,1.10636806488,9.29295635223
1504378081950025396,-0.805424392223,1.13222432137,9.44859886169
1504378082075888625,-0.806622445583,1.16145241261,9.60124778748
1504378082229737010,-0.819934308529,1.18825864792,9.75677680969
1504378082385685292,-0.829012036324,1.21576857567,9.92197036743
1504378082544327844,-0.83084154129,1.23918664455,10.0485897064
1504378082707435396,-0.815810441971,1.24028229713,10.1546859741
1504378082856804093,-0.805615782738,1.24765646458,10.2470216751
1504378083010875656,-0.808719277382,1.26796996593,10.3340415955
1504378083176837114,-0.825843036175,1.30666649342,10.4228954315
1504378083322526593,-0.839346528053,1.33405852318,10.4991283417
1504378083473734302,-0.844615995884,1.35231256485,10.5666627884
1504378083788079510,-0.828306674957,1.3704148531,10.6535110474
1504378083951473416,-0.819314241409,1.38119935989,10.6907815933
1504378084249155395,-0.832714796066,1.40594899654,10.7611541748
1504378084411785603,-0.840930998325,1.41113770008,10.7896270752
1504378084717673103,-0.841122627258,1.40173614025,10.8154325485
1504378084879373520,-0.845976412296,1.4055378437,10.8289489746
1504378085067447009,-0.850948572159,1.4094004631,10.8482656479
1504378085181449926,-0.847202897072,1.40323328972,10.8616914749
1504378085340452478,-0.847573757172,1.40693986416,10.8573846817
1504378085528313728,-0.841527342796,1.40962171555,10.8434658051
1504378085646126801,-0.837392866611,1.40703082085,10.8266429901
1504378085815734978,-0.840936243534,1.39942765236,10.8123874664
1504378085986687582,-0.861229240894,1.3965651989,10.8243217468
1504378086108796436,-0.881107032299,1.39489841461,10.8478822708
1504378086280537113,-0.893417179585,1.38815438747,10.873044014
1504378086450606071,-0.892885506153,1.37702894211,10.8975439072
1504378086577844717,-0.890181779861,1.37728977203,10.9209461212
1504378086745329248,-0.895066618919,1.39858150482,10.9317331314
1504378086912753779,-0.895597934723,1.41486477852,10.9370727539
1504378087053610706,-0.89139175415,1.41354358196,10.9282436371
1504378087213648571,-0.885233819485,1.39705884457,10.9180669785
1504378087376682008,-0.884719192982,1.37331259251,10.9081544876
1504378087509806852,-0.880865991116,1.35688245296,10.9061040878
1504378087677616279,-0.874978482723,1.34370982647,10.9238986969
1504378087830646071,-0.863717377186,1.33544671535,10.9494380951
1504378087976245394,-0.842092692852,1.32816267014,10.9738464355
1504378088151523935,-0.818566679955,1.31797778606,10.9903364182
1504378088297505550,-0.797055006027,1.30975079536,11.0002851486
1504378088444013050,-0.781326472759,1.3089568615,11.0049571991
1504378088617532320,-0.778442680836,1.32087600231,10.9956445694
1504378088768216956,-0.776607275009,1.33307445049,10.9729700089
1504378088943080237,-0.782324194908,1.35473072529,10.9460582733
1504378089059941070,-0.789212226868,1.3767465353,10.9196271896
1504378089232582685,-0.793916940689,1.38887345791,10.8947143555
1504378089379362685,-0.811048150063,1.39246380329,10.8703041077
1504378089533383622,-0.832253217697,1.39314258099,10.8490514755
1504378089701342528,-0.851798057556,1.3906069994,10.8266515732
1504378089850607580,-0.865165889263,1.3867367506,10.8156242371
1504378089990124299,-0.863550722599,1.38449442387,10.794046402
1504378090160818778,-0.857554614544,1.38237404823,10.7296190262
1504378090325104872,-0.843503534794,1.37961471081,10.6017503738
1504378090459010705,-0.830962717533,1.38025510311,10.4600372314
1504378090636106695,-0.817112624645,1.37292277813,10.3218669891
1504378090770252684,-0.813969314098,1.38086485863,10.2073230743
1504378090940401642,-0.807621955872,1.37764716148,10.104847908
1504378091105638622,-0.804192662239,1.3604016304,10.0330057144
1504378091238964403,-0.800310373306,1.3370269537,9.98194980621
1504378091414421746,-0.792430520058,1.32221293449,9.94336128235
1504378091560804767,-0.794191658497,1.29473352432,9.96645450592
1504378091707714455,-0.796712756157,1.2647446394,10.0452270508
1504378091868122736,-0.801220715046,1.23260521889,10.1378765106
1504378092032067632,-0.813415527344,1.20432782173,10.2220916748
1504378092174562423,-0.800179421902,1.16747415066,10.2892055511
1504378092341336954,-0.802923262119,1.11685883999,10.3424634933
1504378092497437267,-0.818342030048,1.07665765285,10.3817558289
1504378092639085808,-0.840135574341,1.04747951031,10.4080209732
1504378092814776798,-0.877258002758,1.03055822849,10.443520546
1504378092947300288,-0.909982442856,1.01965582371,10.4832315445
1504378093113777058,-0.94339287281,1.0310549736,10.5186309814
1504378093285643100,-0.973845660686,1.06139028072,10.5518188477
1504378093416938256,-0.99560290575,1.10233676434,10.5762033463
1504378093571987631,-1.00747931004,1.14687848091,10.5890712738
1504378093749509454,-1.01605963707,1.18310368061,10.6042547226
1504378093881175443,-1.02146887779,1.20829689503,10.6267871857
1504378094037637891,-1.01977884769,1.22576844692,10.6468582153
1504378094213277891,-1.01481246948,1.23675942421,10.656580925
1504378094346952735,-0.999875724316,1.23946416378,10.6706924438
1504378094507332735,-0.98803794384,1.24248552322,10.6787519455
1504378094673130651,-0.978651404381,1.24702060223,10.6747980118
1504378094813308985,-0.967459261417,1.25402951241,10.6612167358
1504378094968358516,-0.956604778767,1.26578450203,10.637887001
1504378095147510287,-0.95199239254,1.27717769146,10.6159162521
1504378095276675547,-0.94802570343,1.28149175644,10.5938415527
1504378095435055443,-0.942307770252,1.28012430668,10.5736618042
1504378095643039661,-0.940415918827,1.28107845783,10.5429735184
1504378095749107057,-0.935682415962,1.28941273689,10.508852005
1504378095914528516,-0.932855427265,1.29720520973,10.4707803726
1504378096219518776,-0.941898524761,1.31160199642,10.4138746262
1504378096379950599,-0.950864672661,1.31188821793,10.3868455887
1504378096564412161,-0.946775794029,1.31146132946,10.3604393005
1504378096678936432,-0.941434562206,1.31736171246,10.3325185776
1504378096845511692,-0.93636405468,1.33233428001,10.3145294189
1504378097023031953,-0.934108018875,1.35418009758,10.2964410782
1504378097142003098,-0.954914033413,1.3870061636,10.2693557739
1504378097322304921,-0.962392628193,1.41152238846,10.2484817505
1504378097481589609,-0.955539047718,1.42642402649,10.2463054657
1504378097613389244,-0.939523398876,1.4308257103,10.2576875687
1504378097780317994,-0.92667889595,1.42870748043,10.291762352
1504378097941700338,-0.916550338268,1.42088425159,10.317358017
1504378098087653306,-0.895598292351,1.41092348099,10.3439064026
1504378098223984817,-0.864853620529,1.39903354645,10.368771553
1504378098416100129,-0.840948998928,1.38522458076,10.3933744431
1504378098531885754,-0.826283216476,1.38607943058,10.4148254395
1504378098692042108,-0.817790091038,1.40052616596,10.4369277954
1504378098873605806,-0.813894867897,1.41866290569,10.4483327866
1504378099011149191,-0.817017018795,1.43631076813,10.4601144791
1504378099167807368,-0.819307565689,1.39354002476,10.465965271
1504378099334519868,-0.821267545223,1.36095499992,10.4760341644
1504378099484935598,-0.825487136841,1.34294819832,10.4797391891
1504378099634532004,-0.830525517464,1.33984470367,10.470867157
1504378099811265024,-0.833287298679,1.35702872276,10.4581489563
1504378099955907160,-0.83012765646,1.38353419304,10.4530591965
1504378100106085233,-0.824979364872,1.4179598093,10.4509096146
1504378100266970493,-0.819340288639,1.45543086529,10.4642982483
1504378100426559451,-0.815671563148,1.48284840584,10.4897089005
1504378100577967785,-0.825346589088,1.5106818676,10.5241222382
1504378100743676795,-0.834664881229,1.51746821404,10.5514163971
1504378100889320128,-0.850884914398,1.51476681232,10.5854415894
1504378101040387941,-0.868929982185,1.50141108036,10.6118679047
1504378101215763149,-0.88357681036,1.46993768215,10.6459207535
1504378101362867836,-0.88972902298,1.44272470474,10.687869072
1504378101501218930,-0.900243163109,1.42196393013,10.7131814957
1504378101679215388,-0.917273521423,1.40970778465,10.7376213074
1504378101816256222,-0.939079046249,1.40262889862,10.7580518723
1504378101965346586,-0.952274501324,1.4013646841,10.7912111282
1504378102131617576,-0.956388354301,1.39753043652,10.8250904083
1504378102273747263,-0.952136099339,1.398229599,10.8513298035
1504378102428756638,-0.942099988461,1.4078360796,10.8720016479
1504378102626426950,-0.936335802078,1.42558896542,10.8923034668
1504378102740459398,-0.926534533501,1.44742977619,10.9159021378
1504378102900377680,-0.91571199894,1.46402740479,10.9430294037
1504378103052243617,-0.901824176311,1.47381448746,10.9586515427
1504378103207409659,-0.888429403305,1.4894297123,10.9625654221
1504378103363420336,-0.876009345055,1.50241434574,10.959227562
1504378103515100961,-0.866640210152,1.51624846458,10.9407300949
1504378103663238721,-0.85771381855,1.52620279789,10.9131164551
1504378103831726794,-0.842848658562,1.51351749897,10.8727464676
1504378103974044085,-0.816720664501,1.45836925507,10.8157405853
1504378104130197367,-0.782500863075,1.33357417583,10.7486133575
1504378104287562210,-0.739696145058,1.12463223934,10.6660737991
1504378104442251169,-0.688625156879,0.839845478535,10.5908241272
1504378104588356846,-0.636665225029,0.477713555098,10.5464544296
1504378104759378252,-0.578993856907,0.0756490379572,10.5227079391
1504378104904347262,-0.531232357025,-0.329068750143,10.5372056961
1504378105057534137,-0.475978910923,-0.727218389511,10.592215538
1504378105231180908,-0.394542247057,-1.10975646973,10.6675510406
1504378105369750335,-0.309797853231,-1.47548699379,10.7359838486
1504378105537973251,-0.242558047175,-1.79771053791,10.806968689
1504378105685143095,-0.185823634267,-2.07261013985,10.8872117996
1504378105834082366,-0.142838269472,-2.28818416595,10.9668540955
1504378106014607210,-0.119272246957,-2.43377184868,11.039642334
1504378106158806689,-0.109722062945,-2.51473546028,11.0999498367
1504378106296906012,-0.109167359769,-2.54826521873,11.0989770889
1504378106467403616,-0.112304896116,-2.54734754562,11.0613145828
1504378106632310178,-0.124019682407,-2.51826334,11.0106248856
1504378106773284345,-0.13756878674,-2.47251152992,10.9498500824
1504378106938422105,-0.140200987458,-2.39684271812,10.8931875229
1504378107253610022,-0.134052932262,-2.20240092278,10.7701568604
1504378107414534449,-0.122044861317,-2.09527873993,10.7097558975
1504378107710763355,-0.076610095799,-1.89766228199,10.5643205643
1504378107874134553,-0.0527752488852,-1.79612600803,10.4883108139
1504378108176606375,0.014358183369,-1.6123496294,10.3510017395
1504378108346759032,0.041000764817,-1.53067946434,10.3004922867
1504378108519807625,0.0624222382903,-1.44809603691,10.2490539551
1504378108647579292,0.0801717042923,-1.36341881752,10.1899299622
1504378108809698823,0.0938324034214,-1.29230284691,10.1307840347
1504378108976294552,0.109329402447,-1.2233799696,10.0841875076
1504378109099407000,0.128979727626,-1.16152584553,10.0448246002
1504378109267736792,0.155537009239,-1.1043368578,10.0248889923
1504378109458741427,0.183905601501,-1.04163980484,10.0056600571
1504378109572386219,0.213030293584,-0.977129757404,9.9942741394
1504378109731773354,0.235374718904,-0.904787421227,9.97859764099
1504378109900334396,0.245394691825,-0.833120822906,9.94314289093
1504378110048231114,0.242142513394,-0.764851927757,9.88443565369
1504378110199998666,0.23787881434,-0.702618837357,9.82839202881
1504378110384384343,0.235803097486,-0.634199082851,9.77387523651
1504378110513643250,0.229211896658,-0.556993424892,9.71954250336
1504378110667948510,0.220791533589,-0.472772181034,9.67019462585
1504378110831317364,0.209717571735,-0.387655138969,9.63708019257
1504378110985541218,0.21073064208,-0.292604833841,9.61029624939
1504378111138988301,0.205119356513,-0.206864133477,9.58580780029
1504378111294448093,0.195345059037,-0.116954639554,9.5604057312
1504378111444232833,0.182751983404,-0.0263908654451,9.55376148224
1504378111612626635,0.171980947256,0.054247956723,9.56340694427
1504378111783176791,0.173327386379,0.124603897333,9.57688999176
1504378111908720280,0.176197454333,0.204007282853,9.57738208771
1504378112080862051,0.181291431189,0.291875958443,9.56833648682
1504378112224363249,0.183807730675,0.389300137758,9.54987239838
1504378112378435124,0.195599988103,0.48972722888,9.53567504883
1504378112543602520,0.212750867009,0.585198223591,9.51023769379
1504378112687278405,0.225993007421,0.678596436977,9.48885917664
1504378112837355905,0.237089216709,0.770720005035,9.48558616638
1504378113008864238,0.25871694088,0.867415189743,9.50865650177
1504378113150802103,0.276831388474,0.968543887138,9.53169727325
1504378113306808978,0.294705152512,1.06351423264,9.54527378082
1504378113456968144,0.316757887602,1.15500462055,9.54782772064
1504378113627343717,0.346386373043,1.25262904167,9.54912471771
1504378113769470019,0.36191701889,1.35759818554,9.54328632355
1504378113934143248,0.380019903183,1.46818649769,9.52861690521
1504378114078049915,0.399252206087,1.57761752605,9.50954627991
1504378114238684290,0.419443339109,1.69013094902,9.488697052
1504378114385566581,0.441878348589,1.80228042603,9.46427726746
1504378114541342154,0.469993621111,1.91321229935,9.45434856415
1504378114711589810,0.50417804718,2.02803349495,9.45903968811
1504378114851327258,0.536028146744,2.14218449593,9.4708366394
1504378115014850331,0.566920280457,2.26127791405,9.49571609497
1504378115178710175,0.596001446247,2.36416244507,9.52482891083
1504378115329120383,0.615715265274,2.45636606216,9.5619726181
1504378115477548196,0.634354770184,2.54737830162,9.58488845825
1504378115643260956,0.656256020069,2.6370139122,9.61122226715
1504378115787228768,0.687297463417,2.7247543335,9.65924549103
1504378115943278195,0.721948444843,2.80977773666,9.70898723602
1504378116112775227,0.751917719841,2.89448666573,9.77774906158
1504378116255893404,0.777005136013,2.98040676117,9.85503387451
1504378116426639810,0.799515485764,3.06590151787,9.92558670044
1504378116581119341,0.816552400589,3.15265965462,9.98214244843
1504378116719831060,0.834726393223,3.23735523224,10.0149745941
1504378116879423403,0.851311743259,3.31734418869,10.0440483093
1504378117046403716,0.86435008049,3.39160847664,10.0837697983
1504378117188956685,0.879594624043,3.46978569031,10.1290550232
1504378117362386580,0.895352780819,3.56269049644,10.1735219955
1504378117527264497,0.933062553406,3.66736030579,10.2045164108
1504378117656375486,0.979439795017,3.77422523499,10.1944217682
1504378117824421320,1.03136003017,3.88566946983,10.1717891693
1504378117967771528,1.07828700542,3.98573732376,10.1425180435
1504378118117144392,1.11599135399,4.07958984375,10.1188488007
1504378118292043195,1.161490798,4.17698860168,10.1078281403
1504378118437695017,1.21185648441,4.2736158371,10.1119861603
1504378118594175694,1.25756955147,4.36729764938,10.1345148087
1504378118760244080,1.29660737514,4.46351575851,10.1690597534
1504378118893525330,1.33927643299,4.5649971962,10.1868629456
1504378119237417048,1.42990899086,4.78339767456,10.1618852615
1504378119356096996,1.46235203743,4.87995052338,10.1458749771
1504378119690500538,1.51267647743,5.04192352295,10.1414060593
1504378119828187152,1.54339087009,5.11835432053,10.1785316467
1504378120160275225,1.61845529079,5.32056283951,10.2465782166
1504378120287566631,1.66415834427,5.43629264832,10.2388067245
1504378120628107308,1.7505645752,5.67305469513,10.1072883606
1504378120765108975,1.79172003269,5.77743673325,10.0305013657
1504378120947700225,1.8296931982,5.86351966858,9.97281265259
1504378121096935121,1.86956357956,5.95031404495,9.92607688904
1504378121232623350,1.90709757805,6.03522014618,9.89071464539
1504378121556322256,1.97530925274,6.21807336807,9.84711837769
1504378121689208454,2.01108336449,6.30745077133,9.83280849457
1504378121879364547,2.04135537148,6.40581512451,9.81511497498
1504378122023037933,2.06300115585,6.5028834343,9.80759620667
1504378122162874391,2.08337831497,6.60451173782,9.80804920197
1504378122339953349,2.10548043251,6.7011218071,9.81744098663
1504378122470467308,2.13340258598,6.80100917816,9.82838630676
1504378122629189860,2.16678547859,6.90707111359,9.82342624664
1504378122964725120,2.21891450882,7.09691286087,9.79264163971
1504378123096366161,2.24835515022,7.17687177658,9.76832675934
1504378123272849026,2.28191065788,7.25727653503,9.75828361511
1504378123411202359,2.31719446182,7.33672046661,9.75567817688
1504378123562089495,2.34161043167,7.41261196136,9.7472076416
1504378123739950484,2.36353135109,7.48569202423,9.72789382935
1504378123870700015,2.38923931122,7.55825805664,9.70896720886
1504378124035840692,2.42184448242,7.63489580154,9.69863986969
1504378124198364182,2.4523870945,7.71077632904,9.69906139374
1504378124342868557,2.47382378578,7.80324745178,9.71270847321
1504378124499111786,2.4922618866,7.89527320862,9.7177734375
1504378124659735744,2.50872254372,7.98905849457,9.70701503754
1504378124800687411,2.52805542946,8.08026885986,9.68645858765
1504378124953748765,2.55193328857,8.16539001465,9.67191314697
1504378125133669286,2.58070206642,8.25181865692,9.66247749329
1504378125266325484,2.60058283806,8.35268306732,9.65391921997
1504378125428339025,2.60469698906,8.46106052399,9.64787483215
1504378125569775535,2.61122012138,8.56423282623,9.63352680206
1504378125726702983,2.61815142632,8.6595287323,9.63062477112
1504378125889604494,2.62441515923,8.76412296295,9.63456344604
1504378126035180171,2.6297814846,8.87113761902,9.64368438721
1504378126196918504,2.636480093,8.97468185425,9.64361572266
1504378126354151108,2.6500287056,9.07420063019,9.63389968872
1504378126509834754,2.65800714493,9.18288898468,9.62298297882
1504378126656063348,2.66465854645,9.29594135284,9.61542606354
1504378126825442670,2.67759180069,9.41226100922,9.61075115204
1504378126968285431,2.68377041817,9.51780128479,9.61273479462
1504378127128777722,2.68014216423,9.62574863434,9.61666584015
1504378127307726629,2.68048143387,9.73747444153,9.62164306641
1504378127442191472,2.68482065201,9.84583759308,9.62897491455
1504378127592609962,2.69124531746,9.94493103027,9.6405878067
1504378127769681472,2.70416235924,10.0462436676,9.64657211304
1504378127910510899,2.71727180481,10.1494998932,9.65904331207
1504378128058591160,2.73140907288,10.2521533966,9.66730308533
1504378128244472982,2.74549412727,10.3543634415,9.67953491211
1504378128370734545,2.75829339027,10.4482278824,9.68441200256
1504378128528779909,2.77002024651,10.5441074371,9.66903686523
1504378128716806159,2.78472495079,10.6445732117,9.65104198456
1504378128849150690,2.80052542686,10.7457399368,9.65087413788
1504378129004912461,2.81716442108,10.8541564941,9.66536521912
1504378129155091888,2.83185648918,10.959982872,9.66785621643
1504378129307885951,2.84216046333,11.0580034256,9.64591884613
1504378129476304388,2.84770607948,11.1489067078,9.61097335815
1504378129625552513,2.85038948059,11.2303314209,9.57786178589
1504378129781651263,2.85560441017,11.3019475937,9.54362297058
1504378129944684648,2.86295175552,11.373925209,9.51683616638
1504378130247142669,2.87822699547,11.5074729919,9.49067211151
1504378130432981315,2.89785599709,11.5561790466,9.48567771912
1504378130721060273,2.90506052971,11.6730422974,9.46625804901
1504378130888686940,2.89555883408,11.7342720032,9.43662643433
1504378131069401783,2.88750004768,11.806520462,9.39909172058
1504378131184022044,2.88183879852,11.8805799484,9.3666934967
1504378131357285012,2.87056040764,11.961602211,9.33427429199
1504378131534130012,2.8544356823,12.0416517258,9.3094959259
1504378131657669544,2.84072160721,12.1152563095,9.29653453827
1504378131821386471,2.83528089523,12.1858682632,9.29034519196
1504378131992498762,2.83238148689,12.2586278915,9.28469944
1504378132127371835,2.83303070068,12.3348808289,9.27959728241
1504378132296264439,2.83783793449,12.4077568054,9.29054069519
1504378132452433970,2.84981966019,12.4788608551,9.30113887787
1504378132589167095,2.86600399017,12.5305871964,9.31502723694
1504378132747777043,2.88218665123,12.5689926147,9.32609939575
1504378132913475533,2.89414191246,12.6062984467,9.33698177338
1504378133055737928,2.90215778351,12.6473693848,9.34725284576
1504378133215925376,2.90560531616,12.6920251846,9.3470287323
1504378133378252668,2.90809130669,12.7408323288,9.33636856079
1504378133522627928,2.90232515335,12.7991695404,9.32260131836
1504378133666792772,2.89032506943,12.8637399673,9.30774784088
1504378133849595949,2.8736577034,12.9410705566,9.2998085022
1504378133997580845,2.85439062119,13.0242214203,9.28660678864
1504378134133605793,2.83803749084,13.1017227173,9.28409385681
1504378134323704543,2.83222770691,13.174530983,9.29786586761
1504378134455508084,2.82935571671,13.2436981201,9.32944488525
1504378134607533136,2.81580781937,13.3095817566,9.36275291443
1504378134793657147,2.80955791473,13.3660230637,9.39856338501
1504378134934278344,2.80212807655,13.4202642441,9.42495346069
1504378135076097563,2.7966542244,13.4695606232,9.46078777313
1504378135251224126,2.79189991951,13.5170135498,9.50365257263
1504378135384795896,2.79005765915,13.5703344345,9.56333732605
1504378135539014230,2.78199315071,13.6247901917,9.61741828918
1504378135727703552,2.77321195602,13.6706581116,9.66343021393
1504378135855755740,2.7637257576,13.7141542435,9.69178104401
1504378136014320375,2.75340867043,13.7627038956,9.71323013306
1504378136185611886,2.7298412323,13.8126621246,9.72811222076
1504378136327402354,2.69932484627,13.8626842499,9.72342395782
1504378136484146156,2.67196774483,13.9164113998,9.7112865448
1504378136651595063,2.64880609512,13.976313591,9.72364997864
1504378136803863604,2.62234759331,14.03262043,9.75689888
1504378136948819125,2.59671401978,14.0732240677,9.79224014282
1504378137105642614,2.57015991211,14.1095266342,9.82743549347
1504378137267242979,2.53925013542,14.1444654465,9.87092781067
1504378137421812354,2.4988489151,14.18176651,9.91963863373
1504378137588329750,2.4601919651,14.2112159729,9.97267532349
1504378137734678395,2.42001414299,14.2458772659,10.0317058563
1504378137876644281,2.37789201736,14.2774734497,10.0803623199
1504378138034578291,2.32820820808,14.3073701859,10.1128959656
1504378138195506729,2.28649663925,14.3459300995,10.1462020874
1504378138351198395,2.24676680565,14.3902311325,10.192360878
1504378138497603447,2.20740580559,14.4270582199,10.2579421997
1504378138655527562,2.17071604729,14.4565248489,10.3140544891
1504378138815340999,2.12915706635,14.4982843399,10.3608407974
1504378138966104280,2.09151601791,14.5333719254,10.4034328461
1504378139130759280,2.05772519112,14.5713253021,10.4182186127
1504378139276857770,2.02473974228,14.6071252823,10.4114542007
1504378139428029436,1.99846374989,14.6427736282,10.3902931213
1504378139590514697,1.97633528709,14.6863708496,10.36348629
1504378139743298603,1.94670987129,14.7303533554,10.3341007233
1504378139892904020,1.91795647144,14.7790050507,10.3069286346
1504378140050196624,1.88690495491,14.8182935715,10.2899513245
1504378140215259644,1.85804772377,14.8389968872,10.2807941437
1504378140357611467,1.80486643314,14.8541593552,10.2767477036
1504378140529814332,1.75907027721,14.8713407516,10.2864789963
1504378140696156051,1.70391333103,14.8841600418,10.3068475723
1504378140832850790,1.63626849651,14.8906574249,10.3318967819
1504378140984907769,1.57187795639,14.9006910324,10.3488922119
1504378141296638863,1.47569346428,14.9196567535,10.3583889008
1504378141464092196,1.43684613705,14.9380331039,10.3538122177
1504378141763182300,1.35657286644,15.0050573349,10.3272380829
1504378141923259592,1.30459570885,15.0350885391,10.3330936432
1504378142226266206,1.19130516052,15.0928735733,10.3233594894
1504378142390188914,1.13396954536,15.1028194427,10.3083057404
1504378142685334435,1.00123989582,15.0912332535,10.2597608566
1504378142853223758,0.937338829041,15.0874900818,10.221912384
1504378143025703185,0.878641366959,15.0908050537,10.1853523254
1504378143155996466,0.813859224319,15.0950775146,10.1539239883
1504378143320128602,0.751893341541,15.0953655243,10.1230134964
1504378143490875633,0.689416527748,15.0912952423,10.0994033813
1504378143629501466,0.624012053013,15.0854196548,10.0755271912
1504378144079304695,0.463327497244,15.0519351959,10.0520734787
1504378144251578758,0.424933731556,15.0530033112,10.0300350189
1504378144408154382,0.391327381134,15.0551357269,10.0108966827
1504378144551715580,0.336680412292,15.0535087585,9.99754333496
1504378144701768132,0.283318340778,15.0552453995,9.99252700806
1504378144872316466,0.224575251341,15.0525932312,9.98027610779
1504378145027395059,0.16364453733,15.0416593552,9.96764945984
1504378145173034591,0.104536637664,15.0180559158,9.9425163269
1504378145342887611,0.0496117509902,15.0028104782,9.92325496674
1504378145489691205,-0.00976616516709,14.9889564514,9.90697956085
1504378145638642976,-0.0683033838868,14.9846343994,9.89953517914
1504378145815204642,-0.130395323038,14.9904699326,9.89424610138
1504378145959397090,-0.191691070795,14.9925022125,9.88051986694
1504378146104216778,-0.261128515005,14.9757175446,9.86109542847
1504378146282229330,-0.334275633097,14.9548110962,9.84196472168
1504378146428345736,-0.408066481352,14.9342441559,9.81499004364
1504378146571174277,-0.481165081263,14.9160909653,9.77423477173
1504378146744694121,-0.556356847286,14.903468132,9.76159954071
1504378146881813913,-0.636245131493,14.8899393082,9.75999450684
1504378147027701829,-0.711913704872,14.874329567,9.75054931641
1504378147220925527,-0.789639234543,14.8627815247,9.72564506531
1504378147344907663,-0.860386550426,14.846373558,9.68157482147
1504378147505980579,-0.928913652897,14.8315753937,9.63219451904
1504378147651049277,-0.998625278473,14.8154935837,9.58088874817
1504378147810207975,-1.06838726997,14.7958669662,9.54127216339
1504378147961080058,-1.13296425343,14.7799596786,9.50906562805
1504378148117719954,-1.21064054966,14.754734993,9.47239112854
1504378148279873183,-1.28669333458,14.7195739746,9.4444360733
1504378148436996516,-1.35915434361,14.6735210419,9.42442512512
1504378148588912558,-1.43088066578,14.6300649643,9.40330123901
1504378148740740839,-1.49363982677,14.5914516449,9.38174152374
1504378148907982714,-1.56284987926,14.5547494888,9.36353778839
1504378149066081829,-1.63404381275,14.5174427032,9.35624313354
1504378149214481881,-1.70702469349,14.4788064957,9.35594654083
1504378149372599224,-1.7772629261,14.4317131042,9.36444091797
1504378149531497453,-1.84375953674,14.3892030716,9.37600135803
1504378149680433808,-1.91873216629,14.3500843048,9.38234996796
1504378149833697714,-1.99972033501,14.3124465942,9.38577365875
1504378150010661568,-2.07540225983,14.2757415771,9.38653087616
1504378150142289953,-2.14305853844,14.2495603561,9.38630962372
1504378150301894797,-2.20916199684,14.2267923355,9.37081813812
1504378150457830526,-2.27816176414,14.2095451355,9.34575080872
1504378150610344536,-2.35325288773,14.2026290894,9.32429122925
1504378150768053963,-2.42675733566,14.1968803406,9.30972480774
1504378150923476099,-2.48700499535,14.1856603622,9.30020999908
1504378151067433286,-2.5542974472,14.1713876724,9.29633712769
1504378151237898599,-2.62920665741,14.1588478088,9.29802894592
1504378151387510682,-2.70377421379,14.1486148834,9.29449176788
1504378151533703026,-2.76629495621,14.1350193024,9.30177402496
1504378151683852661,-2.81958389282,14.1245136261,9.31406974792
1504378151850456880,-2.87202978134,14.1141643524,9.32537841797
1504378151993119692,-2.91163253784,14.0873918533,9.34854888916
1504378152152917088,-2.95910811424,14.0530347824,9.38356399536
1504378152312162661,-3.00999593735,14.0097856522,9.40839958191
1504378152463351671,-3.06766867638,13.9659118652,9.43178272247
1504378152622075213,-3.13650393486,13.9230890274,9.45617485046
1504378152779933494,-3.20437073708,13.8724327087,9.46325492859
1504378152965815785,-3.27700829506,13.8225946426,9.4423418045
1504378153084582556,-3.34669327736,13.7758779526,9.4087305069
1504378153249367608,-3.41662025452,13.7388448715,9.3694934845
1504378153415571983,-3.48845720291,13.7114191055,9.33430862427
1504378153548053441,-3.54724407196,13.6769590378,9.32412147522
1504378153722919223,-3.61183953285,13.6285552979,9.31216049194
1504378153872238441,-3.67813754082,13.5699853897,9.31191253662
1504378154010508025,-3.74421405792,13.5036239624,9.32249164581
1504378154175492764,-3.81598424911,13.4416313171,9.313621521
1504378154317505889,-3.89326834679,13.3853368759,9.30445671082
1504378154470202816,-3.96226382256,13.3341140747,9.30690193176
1504378154646246670,-4.02228736877,13.2856941223,9.31593799591
1504378154786022660,-4.08616924286,13.2271108627,9.31747531891
1504378154936670889,-4.14921712875,13.1731014252,9.30702877045
1504378155122766514,-4.2067694664,13.1264438629,9.29091453552
1504378155245575472,-4.26073026657,13.0839395523,9.26342201233
1504378155420604691,-4.31442499161,13.0419254303,9.2409620285
1504378155590429274,-4.37295436859,13.0039634705,9.21694660187
1504378155718514326,-4.43081569672,12.9657077789,9.20311546326
1504378156052832868,-4.52995729446,12.8891153336,9.18326568604
1504378156177762138,-4.57261705399,12.8554487228,9.16457653046
1504378156495972399,-4.66543912888,12.7944765091,9.10988426208
1504378156637518961,-4.71370077133,12.7593994141,9.10706996918
1504378156968217242,-4.82052135468,12.667552948,9.1281337738
1504378157130637607,-4.87570333481,12.6249361038,9.1323928833
1504378157430563128,-4.98277235031,12.549996376,9.10194015503
1504378157574536148,-5.03630638123,12.5185499191,9.08128452301
1504378157896660054,-5.1398639679,12.4549741745,9.07029438019
1504378158037067554,-5.18418216705,12.4235744476,9.07536220551
1504378158360440002,-5.26885843277,12.356303215,9.08771038055
1504378158504752867,-5.31031990051,12.3210039139,9.0938129425
1504378158705068075,-5.35585927963,12.2911300659,9.10486793518
1504378158833065887,-5.40420055389,12.2702360153,9.1148853302
1504378158978273335,-5.45356035233,12.2494220734,9.12217235565
1504378159167091200,-5.51044416428,12.2053623199,9.12481689453
1504378159292970158,-5.55902767181,12.1579523087,9.13217830658
1504378159451539377,-5.60141944885,12.100733757,9.12712478638
1504378159608887398,-5.63810777664,12.0358905792,9.11041545868
1504378159763877085,-5.67090082169,11.9790887833,9.0951128006
1504378159912150991,-5.69976758957,11.9208831787,9.08384895325
1504378160068470314,-5.72759485245,11.8616533279,9.06971073151
1504378160226203699,-5.75759506226,11.8061227798,9.0427532196
1504378160381560626,-5.79144954681,11.7566595078,9.02216053009
1504378160537724324,-5.83640766144,11.7016305923,8.99722576141
1504378160694451980,-5.88038015366,11.658364296,8.9747838974
1504378160854599064,-5.92302942276,11.6237125397,8.95941352844
1504378161009410262,-5.97488641739,11.5923814774,8.9502325058
1504378161157549636,-6.02842855453,11.5597791672,8.94418334961
1504378161331142918,-6.08256959915,11.529586792,8.94342803955
1504378161465875730,-6.13923549652,11.5011672974,8.95080184937
1504378161633734376,-6.19363546371,11.4770336151,8.94775104523
1504378161796441824,-6.2353105545,11.4497489929,8.93446445465
1504378161940338542,-6.26805782318,11.4178915024,8.93623065948
1504378162132584792,-6.29549741745,11.377497673,8.94682788849
1504378162267086459,-6.32112979889,11.332780838,8.94885635376
1504378162411849636,-6.34929227829,11.2879457474,8.94885826111
1504378162569962448,-6.37632036209,11.2468852997,8.95181274414
1504378162744752657,-6.39625358582,11.1980037689,8.95558071136
1504378162880856250,-6.41653680801,11.15234375,8.9493227005
1504378163036853125,-6.43692874908,11.110370636,8.93589305878
1504378163213359375,-6.46021366119,11.0782880783,8.92499160767
1504378163347124479,-6.48122167587,11.0384969711,8.91726779938
1504378163508514011,-6.50312042236,10.9980964661,8.91158676147
1504378163658351979,-6.52727460861,10.9550199509,8.90648174286
1504378163826737396,-6.55424165726,10.9094896317,8.89930343628
1504378163968940885,-6.58442735672,10.8599643707,8.89201259613
1504378164123429583,-6.61485624313,10.8122463226,8.87989139557
1504378164283320625,-6.64942121506,10.772769928,8.86054801941
1504378164440416198,-6.68667650223,10.7427301407,8.84438991547
1504378164591178073,-6.7221827507,10.7181091309,8.82942199707
1504378164746043750,-6.75498723984,10.6819324493,8.81829452515
1504378164915650000,-6.79376459122,10.6438732147,8.81654167175
1504378165054869218,-6.83671236038,10.5984840393,8.81859111786
1504378165207788385,-6.87432479858,10.551325798,8.82187461853
1504378165378346197,-6.89898681641,10.4842824936,8.81679534912
1504378165524328854,-6.92762374878,10.4239406586,8.81389331818
1504378165673591822,-6.95675039291,10.3644895554,8.80955410004
1504378165851916770,-6.98556184769,10.2981987,8.80324745178
1504378166015543541,-7.01810884476,10.2183427811,8.80306720734
1504378166140436249,-7.0622844696,10.1717395782,8.80824279785
1504378166313634582,-7.10297966003,10.1353816986,8.81291770935
1504378166473519166,-7.13853597641,10.1088705063,8.81108474731
1504378166622385936,-7.16314983368,10.0933065414,8.80080413818
1504378166782218801,-7.19603157043,10.0486736298,8.8015871048
1504378166968311561,-7.21229600906,10.0012702942,8.80512809753
1504378167076928593,-7.22199583054,9.94068813324,8.80190944672
1504378167251517238,-7.2265048027,9.86772632599,8.79791927338
1504378167432088540,-7.22484254837,9.80267238617,8.79948043823
1504378167546157082,-7.21273040771,9.7480506897,8.79735279083
1504378167717383644,-7.1970000267,9.70851230621,8.7947883606
1504378167890108644,-7.17979383469,9.67771816254,8.80044364929
1504378168007141665,-7.16481494904,9.65057945251,8.81294441223
1504378168167851717,-7.15046167374,9.61140823364,8.81972694397
1504378168479248800,-7.13629722595,9.51826953888,8.83284473419
1504378168636278279,-7.12599277496,9.48190593719,8.83003234863
1504378168824644165,-7.11215829849,9.45025539398,8.83102798462
1504378168955275259,-7.10219860077,9.42446517944,8.83044624329
1504378169095216873,-7.09710788727,9.40109825134,8.82404708862
1504378169282468956,-7.09350013733,9.3739862442,8.80654239655
1504378169422849946,-7.08942699432,9.3394613266,8.79881000519
1504378169562072185,-7.07569885254,9.29454898834,8.79907131195
1504378169747873435,-7.0621509552,9.24568080902,8.81109237671
1504378169888343644,-7.04196548462,9.19246101379,8.8289899826
1504378170026838644,-7.01604270935,9.13842201233,8.85168933868
1504378170215790414,-6.98979377747,9.08441448212,8.87532424927
1504378170353717237,-6.96647977829,9.02989959717,8.89141750336
1504378170488135935,-6.94587135315,8.97825813293,8.9063129425
1504378170676804529,-6.92491960526,8.92821407318,8.91148853302
1504378170828142966,-6.90497636795,8.87891864777,8.9214849472
1504378170960840831,-6.87392902374,8.83694076538,8.94239711761
1504378171142195831,-6.84837198257,8.79194450378,8.95439052582
1504378171288095206,-6.82260322571,8.74461174011,8.96041488647
1504378171423535310,-6.79672002792,8.69995117188,8.96223068237
1504378171620679997,-6.77551031113,8.656498909,8.96895980835
1504378171732427497,-6.75515651703,8.61430931091,8.9663028717
1504378171889770153,-6.73260688782,8.56851673126,8.95067310333
1504378172071247966,-6.70260858536,8.51201534271,8.92648029327
1504378172202565466,-6.66935873032,8.45303630829,8.90840435028
1504378172352946716,-6.63389110565,8.38676929474,8.90201377869
1504378172537756247,-6.59688568115,8.32265472412,8.89450454712
1504378172664011559,-6.56115913391,8.26303672791,8.88945770264
1504378172826085361,-6.52929067612,8.21045017242,8.89619159698
1504378173002224163,-6.50397062302,8.14907169342,8.91292858124
1504378173130612236,-6.48052930832,8.09963798523,8.92994499207
1504378173285198955,-6.46272611618,8.05039978027,8.94538402557
1504378173447377861,-6.43967294693,8.00087928772,8.95474720001
1504378173604934736,-6.40247440338,7.94032430649,8.96620082855
1504378173755731194,-6.36316108704,7.8784995079,8.98644065857
1504378173920779423,-6.319896698,7.81406879425,9.00601959229
1504378174069960257,-6.27693653107,7.74358320236,9.01609325409
1504378174237519632,-6.23628234863,7.6617193222,9.02313613892
1504378174383281611,-6.20545196533,7.58170938492,9.03105449677
1504378174538451819,-6.1723575592,7.50904798508,9.03524303436
1504378174695642288,-6.13855361938,7.4429602623,9.0413684845
1504378174849412027,-6.1023015976,7.37797498703,9.0424118042
1504378175000818902,-6.06380271912,7.30852174759,9.04590511322
1504378175166076037,-6.02193927765,7.24279212952,9.04975700378
1504378175322570673,-5.95848417282,7.17513942719,9.06669616699
1504378175468759214,-5.87848329544,7.10581350327,9.0977306366
1504378175634124891,-5.79501056671,7.03707885742,9.13568782806
1504378175813129318,-5.71349239349,6.96813821793,9.16371250153
1504378175943908693,-5.64763450623,6.90851926804,9.18339633942
1504378176097620933,-5.58567523956,6.85057210922,9.20410442352
1504378176272027235,-5.52013969421,6.7874879837,9.22416210175
1504378176416170152,-5.44346046448,6.71943807602,9.24077129364
1504378176565872183,-5.37475061417,6.65338087082,9.25300502777
1504378176727734631,-5.30507278442,6.5842089653,9.25437259674
1504378176876962495,-5.22751617432,6.51363134384,9.25767803192
1504378177049403276,-5.14589262009,6.4443693161,9.25668239594
1504378177193641505,-5.07022285461,6.37443685532,9.25026416779
1504378177343756870,-4.98427629471,6.29924440384,9.23638916016
1504378177657536974,-4.85273456573,6.15013837814,9.24622249603
1504378177811644474,-4.78890705109,6.08076190948,9.25692462921
1504378178132043015,-4.63778686523,5.92986631393,9.30577278137
1504378178275888276,-4.56750822067,5.84786462784,9.33701515198
1504378178587609109,-4.42838335037,5.72043466568,9.40182876587
1504378178756200828,-4.36071538925,5.64904403687,9.44159126282
1504378179054343223,-4.20576238632,5.52992296219,9.50280666351
1504378179219019369,-4.12521219254,5.48094129562,9.5319519043
1504378179525989629,-3.93694615364,5.38384437561,9.58844852448
1504378179692200150,-3.84700226784,5.34144592285,9.60453128815
1504378179849994473,-3.75868988037,5.30102348328,9.61527252197
1504378179989572390,-3.67002058029,5.25600481033,9.62967395782
1504378180164030463,-3.57677555084,5.2078204155,9.6541891098
1504378180318920983,-3.48998999596,5.16304063797,9.6741476059
1504378180481694108,-3.40998506546,5.12662696838,9.69799041748
1504378180635018171,-3.33274006844,5.0926027298,9.72796726227
1504378180783672494,-3.25465726852,5.06293296814,9.74952125549
1504378180926598171,-3.16301989555,5.0248131752,9.76400661469
1504378181095926712,-3.06720614433,4.9869556427,9.77568912506
1504378181388199108,-2.8813791275,4.90309667587,9.80499744415
1504378181572158535,-2.76901245117,4.86875581741,9.82857513428
1504378181710706816,-2.66596364975,4.82971477509,9.83933830261
1504378181862442024,-2.57464671135,4.7861866951,9.83494853973
1504378182031610931,-2.48199558258,4.73717355728,9.8107509613
1504378182180691556,-2.38137578964,4.66939592361,9.78077697754
1504378182343042128,-2.28121972084,4.59571552277,9.7648563385
1504378182493582962,-2.18224358559,4.52492046356,9.74724578857
1504378182649719785,-2.08605670929,4.46129751205,9.72814464569
1504378182807628795,-1.99645531178,4.41207361221,9.69843864441
1504378182967756451,-1.91732668877,4.34251594543,9.66828632355
1504378183120377701,-1.8432418108,4.28541517258,9.65854072571
1504378183273696607,-1.76997148991,4.23836898804,9.64979076385
1504378183435916295,-1.69732606411,4.19891262054,9.63602352142
1504378183582699576,-1.62067294121,4.16557455063,9.61725616455
1504378183744339107,-1.52949547768,4.12192106247,9.60505104065
1504378183908757649,-1.43165791035,4.07896280289,9.59856319427
1504378184049046919,-1.33312213421,4.03399896622,9.59725379944
1504378184210841659,-1.23719835281,3.98268890381,9.59843826294
1504378184379169471,-1.1532984972,3.93060183525,9.59714698792
1504378184522040409,-1.07786798477,3.87873458862,9.59908294678
1504378184679437596,-1.00716400146,3.82843208313,9.59600925446
1504378184851664732,-0.937953054905,3.78424620628,9.58665084839
1504378185034635461,-0.852356553078,3.74637007713,9.56509780884
1504378185145718534,-0.744122982025,3.71435236931,9.54135990143
1504378185314539315,-0.62269371748,3.67251634598,9.51910305023
1504378185468584263,-0.507202863693,3.6257007122,9.4923620224
1504378185612478429,-0.404762685299,3.5766992569,9.4662361145
1504378185759096450,-0.294070333242,3.52900767326,9.45726203918
1504378185918749627,-0.185990020633,3.48155975342,9.47275161743
1504378186070814627,-0.0774284973741,3.44692897797,9.48931980133
1504378186227555460,0.0317234769464,3.42168283463,9.50516891479
1504378186383387648,0.144890800118,3.40473198891,9.52373695374
1504378186539158846,0.252112627029,3.38560557365,9.55355167389
1504378186684555252,0.346191465855,3.35881137848,9.57561588287
1504378186846027439,0.43989866972,3.32433390617,9.58450031281
1504378187006723116,0.540584385395,3.28751921654,9.58633518219
1504378187158009522,0.633118927479,3.25935912132,9.58792209625
1504378187323700824,0.716974794865,3.22286272049,9.58739376068
1504378187473453845,0.798197090626,3.18024277687,9.5809879303
1504378187621896814,0.881862580776,3.13526630402,9.57342815399
1504378187791214887,0.958282113075,3.09702277184,9.56742668152
1504378187940127022,1.03161275387,3.05656766891,9.56624507904
1504378188083653741,1.10018408298,3.02808833122,9.57752037048
1504378188251956762,1.17794013023,3.00707697868,9.60110473633
1504378188408504730,1.24574637413,3.01219391823,9.61810016632
1504378188719423636,1.41372716427,3.00459623337,9.6130027771
1504378188864909782,1.50807785988,2.97678995132,9.60966873169
1504378189035114834,1.60749733448,2.93937397003,9.62214851379
1504378189177666865,1.72143244743,2.92088913918,9.65132331848
1504378189333579574,1.82275998592,2.90705418587,9.69158935547
1504378189663269053,2.03584361076,2.84959077835,9.76895809174
1504378189808023011,2.14384746552,2.81449079514,9.80888652802
1504378190109430303,2.36693120003,2.72880578041,9.90055561066
1504378190278562438,2.47612690926,2.68918037415,9.94479751587
1504378190581651344,2.68630480766,2.62337446213,10.0164222717
1504378190738381344,2.77917814255,2.59837675095,10.0801944733
1504378190918969156,2.87205028534,2.57126283646,10.1452102661
1504378191045451708,2.96054959297,2.54193687439,10.2003192902
1504378191212850510,3.04538702965,2.50961065292,10.2509202957
1504378191374952750,3.13253903389,2.47388958931,10.2760381699
1504378191518718635,3.22757959366,2.44244813919,10.2898378372
1504378191657049625,3.333122015,2.40571761131,10.2857179642
1504378191838138479,3.44736242294,2.36437106133,10.2762880325
1504378191980490771,3.56235980988,2.32334113121,10.2606945038
1504378192144326656,3.66992616653,2.2862341404,10.2438907623
1504378192305548114,3.77014183998,2.25,10.2216510773
1504378192452833322,3.86408185959,2.21563148499,10.1987314224
1504378192597658010,3.9618473053,2.19153261185,10.1804771423
1504378192762593479,4.05605220795,2.16404652596,10.1624536514
1504378192924128218,4.15145397186,2.14458227158,10.1409540176
1504378193067418895,4.24513959885,2.11886501312,10.1338920593
1504378193237762906,4.33050012589,2.08948922157,10.1260442734
1504378193387650562,4.41207122803,2.05577087402,10.1256732941
1504378193543887072,4.48215198517,2.02823615074,10.1338529587
1504378193716845978,4.55813932419,2.00296330452,10.1411943436
1504378193856589676,4.63950395584,1.97206878662,10.1578025818
1504378194017215509,4.72402429581,1.92366361618,10.1708135605
1504378194327024832,4.93516206741,1.80471253395,10.1850948334
1504378194475519988,5.03843641281,1.75013053417,10.1766366959
1504378194640481967,5.13227367401,1.70036196709,10.1662473679
1504378194795703061,5.21545124054,1.65262722969,10.1595821381
1504378194968336655,5.3009929657,1.60270678997,10.1532115936
1504378195104845040,5.37495183945,1.54930734634,10.1379804611
1504378195257998738,5.44053220749,1.49069583416,10.1391639709
1504378195411742228,5.49667644501,1.42706918716,10.1461114883
1504378195567567905,5.55802536011,1.36251246929,10.1615600586
1504378195727437905,5.6114563942,1.30739367008,10.1715545654
1504378195879454207,5.66632556915,1.25597012043,10.1676893234
1504378196031905196,5.72240304947,1.21191096306,10.1531219482
1504378196190191550,5.774122715,1.17637896538,10.1339654922
1504378196349922904,5.84252405167,1.1350414753,10.1213502884
1504378196500307071,5.9085521698,1.09625065327,10.1118211746
1504378196660751290,5.97242927551,1.05527675152,10.1094961166
1504378196809108998,6.03092193604,1.01226472855,10.0998678207
1504378196964327279,6.10256910324,0.970241785049,10.0727615356
1504378197125711758,6.17792701721,0.943597316742,10.0442934036
1504378197302145039,6.25074672699,0.91652649641,10.0157852173
1504378197433227383,6.32072877884,0.888360619545,9.98997974396
1504378197592448841,6.38923311234,0.86518651247,9.94717407227
1504378197741222018,6.46040916443,0.850520372391,9.90579032898
1504378197902286758,6.52708721161,0.831718564034,9.87208747864
1504378198053971862,6.59026050568,0.813199698925,9.84860801697
1504378198210557018,6.64953708649,0.801512539387,9.81883335114
1504378198366263633,6.71024799347,0.783980548382,9.7851858139
1504378198530951445,6.76114320755,0.764327406883,9.74764728546
1504378198690423685,6.81488609314,0.733703076839,9.71743869781
1504378198832817955,6.86699438095,0.703424751759,9.68015098572
1504378198999764205,6.91342878342,0.678607285023,9.64774990082
1504378199304829726,7.00037097931,0.624770462513,9.61458683014
1504378199465417955,7.0496096611,0.587420523167,9.61700057983
1504378199775009882,7.15992927551,0.528584241867,9.61108779907
1504378199941356028,7.21541976929,0.514592587948,9.59463024139
1504378200241927642,7.33534145355,0.486942440271,9.56482315063
1504378200419296340,7.39091682434,0.479118287563,9.5766992569
1504378200590642174,7.44673204422,0.472149759531,9.59195137024
1504378200713323371,7.50396776199,0.462493687868,9.59741973877
1504378200877174726,7.56094169617,0.450626373291,9.59460830688
1504378201061541705,7.61519622803,0.434758782387,9.59435558319
1504378201180702225,7.667927742,0.402059793472,9.58458995819
1504378201355255350,7.71854066849,0.366230428219,9.57339859009
1504378201521542590,7.76614427567,0.33031848073,9.55616569519
1504378201647394673,7.81073474884,0.290456295013,9.54198169708
1504378201826200350,7.85049057007,0.241856753826,9.52032756805
1504378201988143215,7.88977861404,0.198272168636,9.50470924377
1504378202121013892,7.93559885025,0.159740447998,9.50308895111
1504378202296393058,7.98613643646,0.125445500016,9.52461147308
1504378202446993058,8.03735733032,0.0926393195987,9.55311107635
1504378202579485298,8.08668422699,0.0605285018682,9.57526302338
1504378202756450923,8.13476276398,0.0263039842248,9.59977817535
1504378202923953683,8.17822647095,-0.0132435755804,9.62784767151
1504378203051424673,8.21941280365,-0.0555551238358,9.66049766541
1504378203225363110,8.26113033295,-0.096326328814,9.67504119873
1504378203379206235,8.29472827911,-0.119642995298,9.67517185211
1504378203520506860,8.32903289795,-0.145492359996,9.66813087463
1504378203692928162,8.36370563507,-0.172617182136,9.66191005707
1504378203846527641,8.39621448517,-0.199777245522,9.65234375
1504378203985951078,8.41777038574,-0.217067793012,9.64312934875
1504378204134514516,8.4427318573,-0.241955935955,9.64622116089
1504378204318004203,8.47069644928,-0.28093624115,9.66716003418
1504378204456993526,8.50037384033,-0.326058745384,9.68266773224
1504378204603639464,8.5376996994,-0.373024344444,9.6971206665
1504378204922373161,8.59997558594,-0.474814742804,9.73435783386
1504378205107329672,8.62025165558,-0.520840883255,9.74791526794
1504378205232143057,8.64093780518,-0.561152100563,9.75768089294
1504378205393771182,8.66997814178,-0.602731287479,9.76564407349
1504378205565149255,8.70527172089,-0.647811412811,9.77003669739
1504378205703447015,8.74651241302,-0.701829373837,9.77569961548
1504378205859019724,8.78808498383,-0.760216772556,9.77755069733
1504378206009763369,8.82037639618,-0.809205651283,9.77746105194
1504378206170220296,8.85287570953,-0.856563150883,9.77257633209
1504378206323859307,8.88042259216,-0.895994782448,9.75958538055
1504378206493080348,8.89604854584,-0.923011600971,9.73310947418
1504378206627986494,8.90718364716,-0.949691057205,9.70608139038
1504378206788587744,8.93204021454,-0.978645086288,9.67342185974
1504378206938193213,8.96293735504,-1.01383531094,9.63501739502
1504378207093714984,8.9894657135,-1.04313802719,9.59245872498
1504378207247593317,9.01096916199,-1.07239770889,9.55092048645
1504378207405762796,9.02935409546,-1.10108041763,9.5125617981
1504378207567158213,9.05596828461,-1.14599108696,9.46698760986
1504378207740031337,9.07910919189,-1.19132363796,9.4224023819
1504378207914784775,9.09568309784,-1.23793077469,9.39176273346
1504378208032173837,9.1073513031,-1.28793156147,9.36071014404
1504378208202085139,9.11532211304,-1.34121489525,9.32837104797
1504378208497942587,9.13506889343,-1.4351439476,9.28146934509
1504378208677875608,9.14162826538,-1.46838927269,9.25349235535
1504378208961777170,9.1513671875,-1.54823148251,9.21156597137
1504378209147283733,9.15169811249,-1.59562349319,9.19862651825
1504378209426840920,9.15179157257,-1.69414615631,9.13294029236
1504378209609995868,9.15327835083,-1.74939286709,9.10072135925
1504378209776884983,9.15530395508,-1.81322669983,9.07059574127
1504378209904092066,9.14883804321,-1.86640286446,9.03730010986
1504378210070745035,9.13838768005,-1.90572965145,9.01501178741
1504378210244720034,9.12771606445,-1.93584215641,8.9974899292
1504378210363436336,9.11447429657,-1.93989980221,8.99029922485
1504378210539262430,9.10182476044,-1.96190464497,8.9756269455
1504378210701368524,9.0901632309,-1.99134004116,8.96700191498
1504378210831984670,9.08005237579,-2.02641224861,8.96304512024
1504378210978540815,9.07330131531,-2.0683722496,8.95938205719
1504378211169477274,9.06434345245,-2.12489628792,8.94525718689
1504378211309505919,9.05595302582,-2.18937468529,8.92865753174
1504378211449352690,9.04848194122,-2.25338482857,8.91813468933
1504378211631294044,9.03848457336,-2.31726861,8.9056634903
1504378211759778523,9.03453540802,-2.37874698639,8.89170455933
1504378211949901544,9.02401447296,-2.44755363464,8.87803459167
1504378212102458888,9.00478744507,-2.50865459442,8.87242031097
1504378212237983680,8.9794178009,-2.56576037407,8.86912536621
1504378212390357898,8.95625209808,-2.6241979599,8.86622333527
1504378212559174565,8.92999458313,-2.67810773849,8.86328887939
1504378212707645606,8.90790081024,-2.72606682777,8.86006736755
1504378212852008419,8.88407707214,-2.77511453629,8.85000896454
1504378213027747429,8.85313034058,-2.82820272446,8.82922077179
1504378213172272377,8.81569099426,-2.88202857971,8.80548667908
1504378213322453262,8.77321815491,-2.94198918343,8.78611850739
1504378213496614773,8.72866439819,-2.99851226807,8.77997207642
1504378213641302481,8.68460941315,-3.04936218262,8.78200149536
1504378213788769148,8.65186977386,-3.09359478951,8.78553009033
1504378213959991596,8.62183189392,-3.13868618011,8.80050182343
1504378214116153575,8.59362411499,-3.18947887421,8.82232666016
1504378214252267116,8.56565856934,-3.24666547775,8.82831764221
1504378214426130814,8.5374288559,-3.30587458611,8.82443332672
1504378214581138158,8.49895000458,-3.35967040062,8.82187461853
1504378214719191856,8.46251678467,-3.4019613266,8.82442760468
1504378214892912585,8.42868041992,-3.44336104393,8.83185386658
1504378215043442949,8.39315891266,-3.49257493019,8.84008979797
1504378215180582428,8.35844993591,-3.53772068024,8.84512805939
1504378215341205241,8.32474517822,-3.58018279076,8.85048007965
1504378215498789980,8.28752708435,-3.62221503258,8.85410499573
1504378215645156543,8.24840927124,-3.66575789452,8.8528585434
1504378215804423314,8.21003723145,-3.71681332588,8.85193538666
1504378215957699407,8.15570926666,-3.76706886292,8.85370445251
1504378216115448105,8.08915901184,-3.81801986694,8.85114383698
1504378216273572115,8.01826286316,-3.86836910248,8.84868526459
1504378216427774042,7.95026159286,-3.92010378838,8.85042667389
1504378216580766386,7.89162826538,-3.97337579727,8.86539649963
1504378216739145188,7.83068418503,-4.0379242897,8.88526153564
1504378216884245865,7.77127170563,-4.10155582428,8.89865589142
1504378217078200240,7.71155786514,-4.17015647888,8.91121482849
1504378217203547896,7.66282272339,-4.24723386765,8.9234380722
1504378217346168625,7.62055063248,-4.31103849411,8.92740821838
1504378217505595032,7.57938337326,-4.36896514893,8.93500709534
1504378217653828209,7.54070854187,-4.42132520676,8.94329833984
1504378217810455709,7.50496053696,-4.47333812714,8.95158100128
1504378217966024354,7.46748113632,-4.50292921066,8.95516586304
1504378218133423313,7.42604064941,-4.53068971634,8.95233345032
1504378218273311542,7.38248634338,-4.56030654907,8.9558763504
1504378218437547323,7.33722019196,-4.59554243088,8.96377849579
1504378218603081542,7.29675960541,-4.6240901947,8.96156024933
1504378218744288052,7.24290561676,-4.65902900696,8.95044612885
1504378218907956021,7.18904590607,-4.70183753967,8.94617271423
1504378219061187687,7.1336607933,-4.74832963943,8.95248699188
1504378219208625291,7.06969022751,-4.79405784607,8.96757698059
1504378219366532375,6.99639081955,-4.8485789299,8.99004554749
1504378219524033364,6.92401075363,-4.90417814255,9.01073455811
1504378219667096541,6.85732269287,-4.95812273026,9.02581691742
1504378219840121333,6.79744005203,-5.00909614563,9.03258800507
1504378219999968937,6.74278879166,-5.05384683609,9.03084850311
1504378220139873729,6.68415975571,-5.09916257858,9.03626823425
1504378220306788676,6.63019895554,-5.14178228378,9.04047107697
1504378220453392322,6.57984828949,-5.17987680435,9.04023361206
1504378220604458260,6.52967786789,-5.21528434753,9.04365825653
1504378220768867739,6.47734594345,-5.25906991959,9.04877758026
1504378220924755551,6.42051267624,-5.29814243317,9.04236316681
1504378221079584301,6.35468673706,-5.3401722908,9.04758262634
1504378221230325603,6.28414201736,-5.38146924973,9.05717372894
1504378221388907791,6.21275281906,-5.41443300247,9.06795597076
1504378221543655863,6.14070606232,-5.43169975281,9.07439422607
1504378221856353311,6.00001049042,-5.47528648376,9.0877790451
1504378222029788728,5.93940782547,-5.49421644211,9.08804893494
1504378222209597322,5.87474727631,-5.51511096954,9.08255386353
1504378222326701019,5.82062244415,-5.53338861465,9.07986831665
1504378222490757478,5.77546358109,-5.55142974854,9.0796880722
1504378222794621853,5.67119264603,-5.59799575806,9.07328128815
1504378222952972269,5.60725545883,-5.62631845474,9.07122802734
1504378223131716592,5.54702854156,-5.64988803864,9.06991863251
1504378223257903363,5.48504829407,-5.67088842392,9.06140232086
1504378223426731904,5.41472578049,-5.68928718567,9.0539188385
1504378223599050394,5.34114265442,-5.70845651627,9.03803062439
1504378223723581123,5.28561973572,-5.7294960022,9.02155208588
1504378223890067842,5.22656345367,-5.74823188782,9.00942897797
1504378224058781644,5.16290903091,-5.76486110687,9.00624847412
1504378224198346540,5.09497213364,-5.78919649124,9.00204944611
1504378224372284769,5.02398824692,-5.8159160614,8.98323059082
1504378224522036956,4.95123386383,-5.83693885803,8.96627998352
1504378224663726279,4.88217258453,-5.84650945663,8.96327209473
1504378224831033466,4.81835174561,-5.84756135941,8.9668970108
1504378224991060862,4.73642492294,-5.86242723465,8.96963214874
1504378225137145706,4.65915822983,-5.88360261917,8.96504116058
1504378225313398414,4.57965040207,-5.9048371315,8.95275402069
1504378225456101539,4.50832605362,-5.92103862762,8.94407176971
1504378225601009872,4.43977880478,-5.93174171448,8.94299507141
1504378225779515862,4.37264680862,-5.92279434204,8.94316768646
1504378225923969195,4.30649185181,-5.91174316406,8.93619251251
1504378226064813466,4.24121141434,-5.88851976395,8.92400836945
