%time,field.x,field.y,field.z
1504375998770674976,-7.75370311737,6.48676872253,-1.73835253716
1504375998927179872,-7.77748250961,6.48565816879,-1.74098062515
1504375999090644299,-7.80448293686,6.48300552368,-1.73997426033
1504375999229746227,-7.82789993286,6.48165225983,-1.74415612221
1504375999368427112,-7.86634588242,6.48250961304,-1.741127491
1504375999555764456,-7.9030790329,6.49094772339,-1.73921990395
1504375999700435758,-7.93703603745,6.49593114853,-1.73470425606
1504375999835380029,-7.9657959938,6.49647712708,-1.72223746777
1504376000018822373,-7.99164390564,6.49645805359,-1.71719872952
1504376000170455550,-8.0225019455,6.49621772766,-1.70918166637
1504376000303773988,-8.04722595215,6.49236345291,-1.70110738277
1504376000486985134,-8.06746292114,6.48668766022,-1.69803392887
1504376000635064874,-8.08631420135,6.4803276062,-1.69187581539
1504376000772862426,-8.11011791229,6.47602844238,-1.68907928467
1504376000946514405,-8.13104915619,6.47458982468,-1.68357598782
1504376001095777999,-8.14999675751,6.47289562225,-1.68495762348
1504376001235079874,-8.16747283936,6.4684214592,-1.69207942486
1504376001424661124,-8.19087696075,6.45761346817,-1.69940924644
1504376001563711541,-8.20620346069,6.44778490067,-1.70089375973
1504376001709813051,-8.22365283966,6.44043016434,-1.7032763958
1504376001880461541,-8.24224662781,6.43598508835,-1.70838809013
1504376002031212218,-8.26239967346,6.43201351166,-1.71077120304
1504376002170776281,-8.29200744629,6.4342956543,-1.70884096622
1504376002346294354,-8.31611537933,6.43711709976,-1.70788025856
1504376002480260135,-8.33671283722,6.43875789642,-1.7079436779
1504376002630836333,-8.35512638092,6.43950557709,-1.709679842
1504376002804505552,-8.37069511414,6.44083023071,-1.7123541832
1504376002937765396,-8.38156700134,6.43877220154,-1.71627318859
1504376003093248990,-8.39423942566,6.43337059021,-1.72053742409
1504376003268712740,-8.40724372864,6.42690658569,-1.72250187397
1504376003403715761,-8.41098594666,6.4178686142,-1.72203552723
1504376003565995397,-8.41345787048,6.41150140762,-1.72448253632
1504376003720544668,-8.41917133331,6.40307760239,-1.71837258339
1504376003862185918,-8.42539405823,6.39277219772,-1.72004210949
1504376004016878834,-8.42906570435,6.38106584549,-1.71833121777
1504376004193521283,-8.43831634521,6.37631750107,-1.71838665009
1504376004336831543,-8.44817352295,6.37280511856,-1.72266364098
1504376004486975762,-8.45767211914,6.36963796616,-1.72190773487
1504376004652661231,-8.46419715881,6.36738014221,-1.71965837479
1504376004806382325,-8.45985603333,6.36694002151,-1.71783339977
1504376004947503523,-8.45369148254,6.37099266052,-1.72168338299
1504376005123380762,-8.44166278839,6.36993169785,-1.72515809536
1504376005270381127,-8.42818927765,6.36548376083,-1.7286863327
1504376005406538940,-8.41662979126,6.36078166962,-1.73228645325
1504376005583753992,-8.40762996674,6.36132955551,-1.73453474045
1504376005731351909,-8.40377044678,6.36352348328,-1.73238742352
1504376005883253419,-8.40717220306,6.36722612381,-1.72494876385
1504376006053002117,-8.41553592682,6.3714838028,-1.71952676773
1504376006192146024,-8.42137527466,6.37317276001,-1.71853637695
1504376006348738888,-8.42661857605,6.37457847595,-1.71114325523
1504376006510020607,-8.42969036102,6.37696266174,-1.71037697792
1504376006653083107,-8.4330406189,6.38079214096,-1.70786619186
1504376006985665868,-8.43859195709,6.3833694458,-1.69266557693
1504376007117485347,-8.43351840973,6.38149166107,-1.69140613079
1504376007472150712,-8.4089717865,6.37321043015,-1.69341182709
1504376007651031181,-8.39465427399,6.37107419968,-1.69381988049
1504376007805758317,-8.39353466034,6.37946224213,-1.69345915318
1504376007952141285,-8.3839597702,6.38349437714,-1.68968617916
1504376008141557483,-8.36974430084,6.38193655014,-1.67382931709
1504376008455362327,-8.35726833344,6.38148021698,-1.64879703522
1504376008618824828,-8.35773468018,6.38486766815,-1.63467466831
1504376008796102328,-8.369805336,6.39483880997,-1.62177097797
1504376008913096651,-8.38069534302,6.4022397995,-1.60632836819
1504376009082556338,-8.38881206512,6.40721702576,-1.59053015709
1504376009250837380,-8.39002609253,6.40979719162,-1.58045518398
1504376009387703057,-8.38996219635,6.41716718674,-1.5863648653
1504376009546399672,-8.38479328156,6.41864538193,-1.59439122677
1504376009727186912,-8.37642383575,6.4158115387,-1.59517407417
1504376009863244776,-8.36773109436,6.41157913208,-1.59009289742
1504376010021218370,-8.36420917511,6.4124751091,-1.59641826153
1504376010208614464,-8.35666751862,6.41138410568,-1.60099828243
1504376010335334777,-8.34912967682,6.40897417068,-1.59821474552
1504376010494302954,-8.34021377563,6.40781259537,-1.58602309227
1504376010665273631,-8.32843017578,6.40957784653,-1.57602143288
1504376010793412329,-8.31458568573,6.41154623032,-1.56877553463
1504376010951853892,-8.3009519577,6.42100095749,-1.56629061699
1504376011131059621,-8.29038238525,6.43017244339,-1.5662252903
1504376011259888632,-8.28064727783,6.43652486801,-1.55594110489
1504376011415162382,-8.26945590973,6.43933820724,-1.5537674427
1504376011608938319,-8.25694942474,6.44282007217,-1.55318462849
1504376011725661132,-8.25597572327,6.45161533356,-1.55686712265
1504376011888516965,-8.26132202148,6.46450281143,-1.56039297581
1504376012197327695,-8.25783920288,6.48611211777,-1.56554210186
1504376012355697643,-8.24977493286,6.48957586288,-1.55722022057
1504376012524824518,-8.24167060852,6.49682378769,-1.55737233162
1504376012656187174,-8.23194694519,6.50673055649,-1.55945658684
1504376012810566966,-8.22067928314,6.51607131958,-1.56201303005
1504376012978703216,-8.20811462402,6.52932977676,-1.56844067574
1504376013160333685,-8.19557952881,6.54448127747,-1.57676970959
1504376013470118217,-8.1867980957,6.5614066124,-1.5777951479
1504376013625971394,-8.1800699234,6.57115888596,-1.57438290119
1504376013946241030,-8.14631557465,6.57368993759,-1.57962024212
1504376014095412280,-8.12775039673,6.57494211197,-1.58472406864
1504376014427598009,-8.09660243988,6.58333444595,-1.5844476223
1504376014566790457,-8.09257030487,6.59385347366,-1.58316171169
1504376014762470041,-8.0951423645,6.60358428955,-1.57764923573
1504376014884140093,-8.09697628021,6.61144399643,-1.56526494026
1504376015031705041,-8.0965719223,6.6186003685,-1.55420660973
1504376015347223947,-8.07287883759,6.64238977432,-1.53939163685
1504376015496546187,-8.06003189087,6.65345239639,-1.53821587563
1504376015688747333,-8.04650020599,6.66097640991,-1.53865516186
1504376015809062021,-8.03203296661,6.66892147064,-1.53725790977
1504376015959093375,-8.01264667511,6.67425537109,-1.53263676167
1504376016142726865,-7.99131679535,6.67834281921,-1.53314828873
1504376016282596135,-7.971534729,6.68062448502,-1.53502094746
1504376016422829209,-7.95549058914,6.67290258408,-1.53348612785
1504376016603796552,-7.93679189682,6.66586303711,-1.53131496906
1504376016738471188,-7.9260725975,6.66215133667,-1.52643477917
1504376016913682855,-7.92321968079,6.66283845901,-1.52643048763
1504376017069003428,-7.92413425446,6.66597366333,-1.52591955662
1504376017200316657,-7.9219045639,6.66712808609,-1.52195906639
1504376017376283168,-7.916847229,6.66664600372,-1.51893568039
1504376017539868897,-7.91383552551,6.66703462601,-1.51125574112
1504376017670870459,-7.90964174271,6.66902589798,-1.50258624554
1504376017823370199,-7.89700460434,6.67261981964,-1.49573886395
1504376017995550824,-7.88890314102,6.67764377594,-1.49412083626
1504376018136601293,-7.88270139694,6.68342018127,-1.48992788792
1504376018290719002,-7.87885332108,6.68591022491,-1.49115002155
1504376018457061658,-7.87567043304,6.68315076828,-1.48946297169
1504376018604643273,-7.86001062393,6.67479085922,-1.49086558819
1504376018753001658,-7.84167098999,6.66937494278,-1.48888611794
1504376018923632179,-7.8347992897,6.67511844635,-1.49120390415
1504376019075226606,-7.83480405807,6.68865919113,-1.49241685867
1504376019213717961,-7.82982969284,6.69910049438,-1.49434196949
1504376019388300252,-7.83643531799,6.71242761612,-1.48691487312
1504376019542041086,-7.84292602539,6.72286510468,-1.47645223141
1504376019682684680,-7.84881877899,6.73229646683,-1.47596716881
1504376019846509107,-7.85654973984,6.74355745316,-1.4756398201
1504376020008565461,-7.85321474075,6.7580704689,-1.48097634315
1504376020148824003,-7.84863948822,6.768658638,-1.48781478405
1504376020307652649,-7.84165382385,6.77659368515,-1.4945898056
1504376020468426399,-7.83105039597,6.7842874527,-1.49859881401
1504376020622362076,-7.81877660751,6.79652547836,-1.49913728237
1504376020775185462,-7.80893373489,6.80932855606,-1.49837219715
1504376020929108847,-7.80492591858,6.82434034348,-1.50000548363
1504376021088479837,-7.80222034454,6.83914899826,-1.50693023205
1504376021234396400,-7.79408454895,6.84907007217,-1.50875139236
1504376021399803639,-7.78876686096,6.85713624954,-1.51055693626
1504376021550263639,-7.78368711472,6.86688375473,-1.50759983063
1504376021718796400,-7.77646207809,6.8797416687,-1.50155770779
1504376021853842702,-7.77049064636,6.89345550537,-1.50438070297
1504376022007839942,-7.76921224594,6.90651750565,-1.51132524014
1504376022164759265,-7.77579307556,6.91225242615,-1.51934814453
1504376022323425671,-7.78946638107,6.91816234589,-1.52032208443
1504376022475202390,-7.80310630798,6.92609882355,-1.51977407932
1504376022634665776,-7.81298589706,6.93515920639,-1.51800072193
1504376022779723588,-7.82253265381,6.94813632965,-1.51831591129
1504376022940100099,-7.83568429947,6.96343660355,-1.51587915421
1504376023101384839,-7.85174942017,6.981112957,-1.51148545742
1504376023244953172,-7.86912155151,6.99943113327,-1.51835262775
1504376023405994630,-7.8861618042,7.01421689987,-1.51784133911
1504376023564842704,-7.8933057785,7.02842092514,-1.51680541039
1504376023705920881,-7.89827442169,7.04233789444,-1.51620006561
1504376023868127964,-7.89925479889,7.05267906189,-1.51300978661
1504376024038757652,-7.89201307297,7.05405044556,-1.50068318844
1504376024172018485,-7.88671207428,7.06041765213,-1.49149286747
1504376024331136558,-7.88950681686,7.0704498291,-1.48197746277
1504376024497035308,-7.89582204819,7.08241415024,-1.47712671757
1504376024635263694,-7.9004740715,7.095307827,-1.48132348061
1504376024793949423,-7.90198278427,7.10677480698,-1.4897094965
1504376024970743486,-7.90977144241,7.12178993225,-1.49370777607
1504376025096507548,-7.9199590683,7.13467550278,-1.49715638161
1504376025268851038,-7.93023824692,7.14486694336,-1.49800109863
1504376025434146611,-7.93690538406,7.15271377563,-1.49819588661
1504376025569843122,-7.93160057068,7.16415596008,-1.49224627018
1504376025736719632,-7.91869449615,7.16922521591,-1.48458468914
1504376025898976299,-7.90801811218,7.17322683334,-1.47953689098
1504376026028118643,-7.90004587173,7.17802858353,-1.47113084793
1504376026197299476,-7.89003801346,7.17917966843,-1.46759700775
1504376026352208904,-7.88390398026,7.18036699295,-1.46773803234
1504376026489093122,-7.87658071518,7.17864322662,-1.46827399731
1504376026683780623,-7.86902570724,7.17491960526,-1.4740203619
1504376026821679685,-7.87502861023,7.17436933517,-1.48202335835
1504376026966879737,-7.88224506378,7.173828125,-1.48858654499
1504376027288950571,-7.88621044159,7.18398714066,-1.51249361038
1504376027426356561,-7.88422250748,7.19021844864,-1.51975035667
1504376027626534009,-7.89553308487,7.19533872604,-1.52318429947
1504376027745960155,-7.90587377548,7.19846248627,-1.52270781994
1504376027889930467,-7.91039085388,7.19393348694,-1.52518165112
1504376028083905884,-7.91161346436,7.18524837494,-1.52566444874
1504376028208448384,-7.91217184067,7.17491149902,-1.52925789356
1504376028350895936,-7.91528320312,7.16727733612,-1.52858269215
1504376028679294582,-7.92528676987,7.16441488266,-1.52456355095
1504376028813247968,-7.92518424988,7.16682195663,-1.51822090149
1504376029001004062,-7.91507339478,7.16764068604,-1.51216554642
1504376029135659531,-7.90626955032,7.16756296158,-1.51295912266
1504376029289660885,-7.90236091614,7.16997146606,-1.5157636404
1504376029460206979,-7.90457296371,7.17468309402,-1.5226610899
1504376029600086666,-7.90023851395,7.17513656616,-1.52169978619
1504376029738634583,-7.90062046051,7.18114089966,-1.51528525352
1504376029919046250,-7.90005350113,7.18666887283,-1.50558269024
1504376030066599271,-7.89698600769,7.19050598145,-1.49785065651
1504376030201313750,-7.88579845428,7.19189882278,-1.49387586117
1504376030387494740,-7.8796954155,7.19336128235,-1.48602676392
1504376030512523594,-7.87725973129,7.19495010376,-1.4809525013
1504376030662674063,-7.86951398849,7.19489049911,-1.47229552269
1504376030850846980,-7.85471820831,7.19280672073,-1.46799993515
1504376030993280990,-7.8307056427,7.19202804565,-1.4623913765
1504376031131169793,-7.81237268448,7.19453573227,-1.46358263493
1504376031307855887,-7.79786968231,7.19569301605,-1.45840680599
1504376031437765366,-7.78680372238,7.19480705261,-1.45742702484
1504376031591519376,-7.78225231171,7.19017696381,-1.45346605778
1504376031904456720,-7.76965522766,7.1802239418,-1.43939983845
1504376032051843231,-7.76673173904,7.17844486237,-1.43597853184
1504376032244910002,-7.77492237091,7.18260478973,-1.43208265305
1504376032363414012,-7.7860455513,7.18532943726,-1.43128883839
1504376032512480783,-7.80699110031,7.19283676147,-1.43033444881
1504376032705661877,-7.83468914032,7.20243692398,-1.42281675339
1504376032822771409,-7.8659734726,7.21178531647,-1.41644620895
1504376032986703388,-7.8904671669,7.2167673111,-1.41200447083
1504376033171500836,-7.90371704102,7.21966695786,-1.40624809265
1504376033293526044,-7.91134500504,7.22056245804,-1.39811420441
1504376033446201774,-7.91806554794,7.22111940384,-1.39136147499
1504376033627547659,-7.9254655838,7.22798109055,-1.38551855087
1504376033744127034,-7.93375587463,7.23506307602,-1.38118946552
1504376033902335368,-7.94008255005,7.24307155609,-1.38242053986
1504376034094864118,-7.94570207596,7.25148582458,-1.38332474232
1504376034209881253,-7.95453834534,7.25816917419,-1.38154566288
1504376034371801253,-7.96778774261,7.26542186737,-1.37558174133
1504376034543964691,-7.97097921371,7.26696634293,-1.3685785532
1504376034677384118,-7.97062158585,7.26642084122,-1.35925829411
1504376034832227816,-7.974132061,7.26781749725,-1.35181951523
1504376035005161098,-7.96944379807,7.26941394806,-1.34147250652
1504376035138799952,-7.96649932861,7.27092552185,-1.3277772665
1504376035295087140,-7.96210289001,7.27006816864,-1.32009661198
1504376035465818181,-7.95238113403,7.26589822769,-1.30646216869
1504376035605446879,-7.94206428528,7.26014518738,-1.29389798641
1504376035795330890,-7.93508625031,7.2494597435,-1.29492461681
1504376035918172036,-7.92949151993,7.24099302292,-1.30163574219
1504376036081171567,-7.92357730865,7.23395633698,-1.29855060577
1504376036228160578,-7.92004060745,7.22980928421,-1.29423356056
1504376036389064067,-7.91186904907,7.21838331223,-1.2921974659
1504376036537523234,-7.90970468521,7.2114109993,-1.2927223444
1504376036692748286,-7.90927934647,7.20591592789,-1.28859603405
1504376036846570474,-7.90947198868,7.20164251328,-1.28688097
1504376036997668130,-7.91185331345,7.20095586777,-1.27938556671
1504376037162193339,-7.9109210968,7.19576406479,-1.28100979328
1504376037342176152,-7.91007566452,7.18971443176,-1.27968001366
1504376037483082402,-7.90686893463,7.18367671967,-1.28113400936
1504376037642972818,-7.89454555511,7.1771068573,-1.28192269802
1504376037846768652,-7.88331985474,7.16988563538,-1.28461539745
1504376037971492350,-7.87527132034,7.16358137131,-1.28571641445
1504376038123221360,-7.85787820816,7.15754365921,-1.28317916393
1504376038320067194,-7.83884191513,7.15198564529,-1.28037595749
1504376038433604902,-7.82654047012,7.14768600464,-1.2788797617
1504376038588825423,-7.81096172333,7.13944387436,-1.2738275528
1504376038794983965,-7.79281806946,7.13017034531,-1.2713394165
1504376038905772038,-7.78072738647,7.12814712524,-1.26899254322
1504376039053744903,-7.7709980011,7.13913154602,-1.24483072758
1504376039246197403,-7.75303077698,7.15613794327,-1.17050766945
1504376039369145476,-7.73963594437,7.19628000259,-1.04488492012
1504376039529249070,-7.73519182205,7.25321340561,-0.866379261017
1504376039712681987,-7.73828649521,7.32654476166,-0.632039964199
1504376039835629435,-7.74345684052,7.39687585831,-0.373637914658
1504376039995349018,-7.75892210007,7.47459840775,-0.143596827984
1504376040173894383,-7.78231096268,7.52342748642,0.043718367815
1504376040301004227,-7.79614496231,7.53631591797,0.207482099533
1504376040460515321,-7.78796577454,7.51737737656,0.365476459265
1504376040632215946,-7.77986431122,7.49871921539,0.532912254333
1504376040773811206,-7.76573514938,7.47359609604,0.702048957348
1504376040921270738,-7.74547147751,7.46211385727,0.866299510002
1504376041107540529,-7.69954156876,7.4656996727,1.04152846336
1504376041232992248,-7.61081647873,7.49273729324,1.21459794044
1504376041390619540,-7.45333003998,7.55108833313,1.38479268551
1504376041549619280,-7.23964452744,7.63245248795,1.54810678959
1504376041696885894,-6.99150800705,7.70971059799,1.70048761368
1504376041856925270,-6.69172716141,7.77941083908,1.85989570618
1504376042012972197,-6.37490177155,7.84144973755,2.00795125961
1504376042193497145,-6.03320455551,7.89152526855,2.16010713577
1504376042328611676,-5.69881629944,7.9167804718,2.30880498886
1504376042480095270,-5.36819219589,7.93068981171,2.45375752449
1504376042652161572,-5.01834964752,7.95331573486,2.60370850563
1504376042807249854,-4.67291545868,7.9486041069,2.75056099892
1504376042954147302,-4.34650945663,7.92365884781,2.88592123985
1504376043110376625,-4.03633737564,7.87182569504,3.01802611351
1504376043274314073,-3.75241422653,7.797290802,3.14215350151
1504376043414776729,-3.46562147141,7.69707632065,3.27813434601
1504376043581329229,-3.19084382057,7.57566404343,3.41862177849
1504376043732661156,-2.93008494377,7.42240190506,3.54000234604
1504376043880888084,-2.67281079292,7.25072383881,3.65621852875
1504376044048741521,-2.41897082329,7.07131481171,3.76579475403
1504376044204918084,-2.19437074661,6.86687517166,3.87693619728
1504376044343460636,-1.98946118355,6.64431285858,3.9753139019
1504376044510836313,-1.79744446278,6.41118431091,4.06729507446
1504376044671835845,-1.61853349209,6.18067455292,4.15860891342
1504376044818566938,-1.4455126524,5.97169923782,4.25541114807
1504376044991518605,-1.29970097542,5.79937696457,4.34925413132
1504376045158968658,-1.16269052029,5.63414287567,4.45260429382
1504376045287693710,-1.03984248638,5.47326660156,4.56057739258
1504376045449669126,-0.950667560101,5.34385633469,4.65142297745
1504376045749920429,-0.824384450912,5.1810092926,4.8529009819
1504376045920023346,-0.796389102936,5.15119886398,4.9519276619
1504376046224085325,-0.792936444283,5.14778137207,5.14257049561
1504376046390058346,-0.804509520531,5.15835857391,5.23856210709
1504376046694533971,-0.811586916447,5.18155574799,5.42521572113
1504376046867902357,-0.808484852314,5.19419336319,5.52393913269
1504376047045075534,-0.78103107214,5.19871091843,5.63205623627
1504376047153086784,-0.746514320374,5.21843385696,5.73364686966
1504376047322109076,-0.68642270565,5.24465942383,5.83004951477
1504376047486546628,-0.61269813776,5.26974201202,5.91647052765
1504376047623225378,-0.557374238968,5.27702999115,5.9972653389
1504376047790157305,-0.528316438198,5.27778816223,6.07178878784
1504376047949651420,-0.519375622272,5.26705789566,6.14322519302
1504376048090022722,-0.528383851051,5.24854946136,6.20992040634
1504376048250216056,-0.554191410542,5.22577381134,6.26779460907
1504376048413621472,-0.580411732197,5.2152967453,6.3291683197
1504376048551322254,-0.600637257099,5.20748329163,6.39780569077
1504376048723333139,-0.617020130157,5.19798612595,6.47010374069
1504376048882675796,-0.637048482895,5.1862950325,6.53485393524
1504376049010933817,-0.668202936649,5.1748085022,6.58744716644
1504376049178359077,-0.696313858032,5.17214202881,6.62925720215
1504376049332638713,-0.72114855051,5.17409896851,6.67526912689
1504376049477275692,-0.742029964924,5.17476224899,6.71628952026
1504376049649171890,-0.762673377991,5.16647911072,6.74766731262
1504376049801306369,-0.787005066872,5.16595649719,6.7879114151
1504376049938696369,-0.801640272141,5.17055606842,6.83444356918
1504376050117870693,-0.811114251614,5.16942882538,6.88122701645
1504376050266893349,-0.81659924984,5.15988111496,6.9236831665
1504376050404290641,-0.820600271225,5.16218709946,6.97516059875
1504376050563521057,-0.817044258118,5.16895103455,7.03591442108
1504376050724580276,-0.810135543346,5.17364120483,7.10382413864
1504376050875577829,-0.801828622818,5.17740058899,7.1657948494
1504376051032826474,-0.790080189705,5.19021654129,7.23392295837
1504376051198364131,-0.786109149456,5.19533061981,7.28525400162
1504376051357276527,-0.78001075983,5.19940471649,7.32565593719
1504376051492659444,-0.773564755917,5.20286417007,7.3648314476
1504376051658209287,-0.769691109657,5.20576095581,7.40321683884
1504376051818390798,-0.772655189037,5.20417833328,7.43356800079
1504376051968749913,-0.775071799755,5.19613790512,7.45013999939
1504376052135280642,-0.780631363392,5.18787288666,7.46831274033
1504376052294137413,-0.788542091846,5.18331098557,7.49067831039
1504376052425966163,-0.798592865467,5.17647504807,7.51230859756
1504376052590085069,-0.807353675365,5.16649436951,7.53062343597
1504376052767695538,-0.803376615047,5.14769744873,7.54909992218
1504376052897980278,-0.789585530758,5.11970949173,7.61996793747
1504376053053846111,-0.753228843212,5.06279373169,7.80424118042
1504376053227033664,-0.690273106098,4.96297979355,8.05146980286
1504376053370470643,-0.589265286922,4.83121395111,8.28230857849
1504376053542375278,-0.459020107985,4.66999721527,8.48945140839
1504376053674408091,-0.30307713151,4.48545503616,8.69312572479
1504376053832282883,-0.151364684105,4.30900096893,8.88668727875
1504376054007103664,-0.0284449439496,4.12500238419,9.05021858215
1504376054141133248,0.0907492041588,3.94911646843,9.17168140411
1504376054296302362,0.200300633907,3.79922485352,9.25813865662
1504376054472224602,0.300426036119,3.67176938057,9.32569694519
1504376054606312050,0.37793558836,3.56483864784,9.35306358337
1504376054762776998,0.44575843215,3.48343086243,9.36066150665
1504376054922396738,0.503131508827,3.41384339333,9.36142158508
1504376055079132467,0.549114406109,3.35909056664,9.37089824677
1504376055237076842,0.602807223797,3.30343556404,9.3890504837
1504376055405587363,0.632472395897,3.26799964905,9.39064693451
1504376055540124655,0.65154081583,3.25302696228,9.3993473053
1504376055699154603,0.659861028194,3.24873399734,9.39787006378
1504376055879119447,0.66350787878,3.24698781967,9.41056060791
1504376056003342832,0.661975324154,3.24735450745,9.41107368469
1504376056171234864,0.656635701656,3.24787712097,9.41204166412
1504376056338558874,0.651396512985,3.24965429306,9.42358493805
1504376056470959760,0.646333932877,3.25515341759,9.42691612244
1504376056798396062,0.622720599174,3.27531147003,9.36293888092
1504376056937055489,0.609096944332,3.28421616554,9.33822441101
1504376057246564292,0.602020561695,3.30477809906,9.29617977142
1504376057406932261,0.584549605846,3.31306862831,9.29184913635
1504376057594161011,0.570573329926,3.31172132492,9.29567432404
1504376057710114917,0.563298285007,3.30698394775,9.28508090973
1504376057878062990,0.562110364437,3.30332732201,9.26040744781
1504376058185752053,0.565696299076,3.28783559799,9.22901153564
1504376058337959188,0.555020928383,3.26436495781,9.19752216339
1504376058532463511,0.527121782303,3.2225959301,9.17169952393
1504376058670021793,0.49701038003,3.16249799728,9.15700435638
1504376058803904553,0.472840070724,3.11587882042,9.15037536621
1504376059105801897,0.48624163866,3.0833261013,9.14167499542
1504376059262227991,0.508580982685,3.07789754868,9.12721061707
1504376059575664450,0.552792489529,3.05367159843,9.08482646942
1504376059731335492,0.571825921535,3.04157209396,9.06939315796
1504376060044277211,0.589942634106,3.01258516312,9.0489397049
1504376060197715336,0.599311947823,3.00457882881,9.05084609985
1504376060383585805,0.602348506451,2.9987757206,9.04499816895
1504376060510873409,0.606258571148,2.99535369873,9.0401802063
1504376060664189919,0.609449982643,2.99252009392,9.03236293793
1504376060845781951,0.609398603439,2.98842549324,9.01454639435
1504376060974858045,0.606433570385,2.97906780243,8.98795795441
1504376061137452628,0.605054855347,2.96960902214,8.96774101257
1504376061296625649,0.603315293789,2.95901441574,8.94728088379
1504376061446469035,0.601360440254,2.94769048691,8.92589759827
1504376061607129139,0.604974627495,2.93606472015,8.92397785187
1504376061766697368,0.614485859871,2.91937470436,8.92121887207
1504376061914573410,0.626643836498,2.90629053116,8.91332054138
1504376062084443827,0.640647292137,2.90224051476,8.91125106812
1504376062216910181,0.654064953327,2.91348743439,8.90626907349
1504376062372275546,0.674437642097,2.93272709846,8.89709281921
1504376062538577785,0.694128274918,2.95582985878,8.88896751404
1504376062691820702,0.71081751585,2.9849011898,8.87996387482
1504376062838733515,0.723829209805,3.02673888206,8.86721420288
1504376063003694348,0.732148528099,3.06633377075,8.86868095398
1504376063144158932,0.727416038513,3.10918831825,8.8635559082
1504376063301904557,0.714709222317,3.15860199928,8.8480463028
1504376063479763255,0.693346619606,3.21794724464,8.82456207275
1504376063618104505,0.658122599125,3.2836766243,8.8114233017
1504376063782414974,0.634415388107,3.3513982296,8.79951667786
1504376063943235182,0.613262712955,3.41408753395,8.79429626465
1504376064091450859,0.594433367252,3.47035837173,8.79617500305
1504376064245001537,0.575944185257,3.51568365097,8.79610443115
1504376064410574193,0.561811506748,3.54326987267,8.80565547943
1504376064553898724,0.528422117233,3.56334018707,8.80500602722
1504376064706850808,0.489261090755,3.57203531265,8.80038166046
1504376064878695235,0.448795586824,3.57298636436,8.79930877686
1504376065025883360,0.414302706718,3.56982421875,8.81032848358
1504376065175016537,0.385722875595,3.56635808945,8.81824684143
1504376065325532162,0.356037318707,3.5612077713,8.81927680969
1504376065480217475,0.323361754417,3.55352377892,8.81443595886
1504376065642886538,0.283013552427,3.54310870171,8.80776786804
1504376065813984402,0.225961640477,3.52865481377,8.78196239471
1504376065952178361,0.16607286036,3.50938630104,8.75393676758
1504376066113361538,0.0930919274688,3.48041939735,8.72695636749
1504376066294517267,0.00935182813555,3.44268703461,8.70439434052
1504376066424302945,-0.0589450746775,3.40017962456,8.697681427
1504376066577149611,-0.146760180593,3.35192084312,8.70049762726
1504376066737794872,-0.242303803563,3.30769848824,8.69936656952
1504376066886242216,-0.344305932522,3.26818132401,8.69257926941
1504376067050766018,-0.446998625994,3.23359370232,8.68020248413
1504376067208977841,-0.578140556812,3.19195580482,8.66033744812
1504376067349552789,-0.6951212883,3.15890192986,8.65421390533
1504376067515180445,-0.800300240517,3.12805652618,8.64827919006
1504376067698432893,-0.896086812019,3.10014438629,8.64245033264
1504376067837559925,-0.983848750591,3.08050346375,8.6333322525
1504376067979955550,-1.06592178345,3.05133032799,8.62326526642
1504376068146266956,-1.15369987488,3.02080702782,8.61931037903
1504376068286153675,-1.24313271046,2.99156117439,8.61628246307
1504376068456767946,-1.32734894753,2.96953105927,8.61724376678
1504376068753950394,-1.52230119705,2.93635749817,8.63798713684
1504376068920017113,-1.60837972164,2.9222278595,8.65302181244
1504376069224958936,-1.77822196484,2.89868021011,8.65199279785
1504376069394536436,-1.86428868771,2.88409423828,8.63954925537
1504376069692034666,-2.04397916794,2.85813498497,8.62445926666
1504376069882871593,-2.13466477394,2.84463596344,8.62292480469
1504376070035137635,-2.22575426102,2.83346772194,8.6111164093
1504376070153159614,-2.30596756935,2.81764268875,8.59176826477
1504376070330459093,-2.39299106598,2.79915070534,8.57911968231
1504376070494799094,-2.49106240273,2.77895069122,8.58049297333
1504376070624314719,-2.58214044571,2.76299858093,8.57984828949
1504376070776678573,-2.66058754921,2.75396060944,8.58453273773
1504376071092826021,-2.84143590927,2.74462199211,8.5632314682
1504376071242716959,-2.94477152824,2.72921514511,8.55276966095
1504376071421218053,-3.05388855934,2.70708203316,8.54444217682
1504376071549852584,-3.15780758858,2.68644595146,8.53285980225
1504376071736889824,-3.25092673302,2.67091464996,8.52889537811
1504376071892271074,-3.33418226242,2.65908145905,8.5313243866
1504376072021666334,-3.42021656036,2.6430208683,8.53359508514
1504376072196315657,-3.51648569107,2.61725687981,8.54633808136
1504376072353890866,-3.60727000237,2.59167408943,8.55343055725
1504376072492316855,-3.70189857483,2.56307721138,8.55564975739
1504376072641430814,-3.80998420715,2.52851915359,8.55716896057
1504376072814304877,-3.91459131241,2.49534535408,8.56045627594
1504376072960528887,-4.02414560318,2.46263957024,8.55552577972
1504376073101351023,-4.12472486496,2.43569564819,8.5457611084
1504376073276649148,-4.22460365295,2.41464853287,8.53343105316
1504376073428749773,-4.34140777588,2.39465522766,8.52848720551
1504376073570898471,-4.44918775558,2.37910795212,8.51517295837
1504376073750102950,-4.54138803482,2.37331604958,8.48398590088
1504376073904016492,-4.63377475739,2.3681640625,8.45624542236
1504376074039443836,-4.71840715408,2.3595290184,8.45305728912
1504376074212021440,-4.80869245529,2.33727908134,8.45813083649
1504376074376809357,-4.88662528992,2.32277107239,8.46423816681
1504376074510633055,-4.95906066895,2.3123960495,8.4730682373
1504376074674475920,-5.04016876221,2.30135273933,8.48891639709
1504376074821979045,-5.12663793564,2.29019546509,8.50350379944
1504376074978641909,-5.22808837891,2.2706887722,8.5072145462
1504376075135590191,-5.33855104446,2.2453482151,8.51427078247
1504376075282132639,-5.44501972198,2.22137093544,8.52353572845
1504376075432145191,-5.55213356018,2.20156264305,8.53538417816
1504376075598355399,-5.65395116806,2.17540097237,8.54008579254
1504376075744290660,-5.7563328743,2.14429020882,8.53395652771
1504376075895312796,-5.85111141205,2.11593008041,8.53320217133
1504376076068297692,-5.92443943024,2.09104633331,8.53645896912
1504376076207191442,-5.99027776718,2.07447719574,8.53082466125
1504376076368811494,-6.04082107544,2.06469416618,8.52671527863
1504376076526126494,-6.08258628845,2.05363368988,8.5200843811
1504376076673759879,-6.12246704102,2.04554486275,8.51320266724
1504376076833524723,-6.16269683838,2.04110956192,8.50821399689
1504376077020709203,-6.20235300064,2.02256250381,8.49424362183
1504376077145284515,-6.23044776917,1.99951827526,8.48378944397
1504376077303924359,-6.24369287491,1.97186720371,8.48551845551
1504376077481186859,-6.24207448959,1.94435572624,8.4903678894
1504376077614512120,-6.23403358459,1.92564558983,8.49390029907
1504376077768449828,-6.21759653091,1.89307749271,8.50505065918
1504376077943439360,-6.19767904282,1.85550737381,8.51100158691
1504376078102763631,-6.1830124855,1.81297123432,8.52444839478
1504376078258601339,-6.1777844429,1.76304841042,8.54846572876
1504376078394457068,-6.1727180481,1.71476578712,8.58406162262
1504376078566872589,-6.16416788101,1.66444587708,8.61805152893
1504376078867127017,-6.13568782806,1.55785107613,8.62659645081
1504376079030182017,-6.1262512207,1.51462042332,8.6259355545
1504376079327471756,-6.13277196884,1.45010817051,8.60955619812
1504376079493008423,-6.14422702789,1.42492187023,8.59796237946
1504376079675848319,-6.14981365204,1.40508675575,8.5830821991
1504376079793017799,-6.16366100311,1.38225841522,8.57817840576
1504376079959598997,-6.19067382813,1.35995256901,8.58232307434
1504376080272311861,-6.2599363327,1.315792799,8.59694385529
1504376080426106289,-6.29105949402,1.29271674156,8.60166072845
1504376080610433268,-6.31644058228,1.27819252014,8.59600162506
1504376080728194466,-6.34811449051,1.27216565609,8.60297775269
1504376080886877591,-6.37738227844,1.27357697487,8.62237071991
1504376081088825925,-6.39992809296,1.28109717369,8.63761329651
1504376081201504935,-6.41613578796,1.31157588959,8.63974666595
1504376081368432696,-6.42500209808,1.36059367657,8.64000034332
1504376081538737175,-6.43091964722,1.42184937,8.63883209229
1504376081671133060,-6.43886518478,1.49428057671,8.64312553406
1504376081825678217,-6.45812749863,1.57820749283,8.64634513855
1504376082003563842,-6.47421884537,1.6591950655,8.65744400024
1504376082127454259,-6.47518110275,1.75263667107,8.6667432785
1504376082300190300,-6.46839761734,1.85622096062,8.67188072205
1504376082439030561,-6.45201826096,1.98202681541,8.68388366699
1504376082594759780,-6.43151187897,2.11390256882,8.70703887939
1504376082760525301,-6.40657806396,2.24961137772,8.72864246368
1504376082910166759,-6.37683391571,2.38787388802,8.76263141632
1504376083063774624,-6.3478937149,2.51657485962,8.79183769226
1504376083228527801,-6.32547616959,2.64100003242,8.82012653351
1504376083373406082,-6.29993438721,2.75485610962,8.82988548279
1504376083529762072,-6.2773141861,2.87153577805,8.82371425629
1504376083701368687,-6.25701093674,2.99377584457,8.82501602173
1504376083839839520,-6.23899316788,3.11209964752,8.83308887482
1504376084000104000,-6.2269744873,3.24040269852,8.83586120605
1504376084174823583,-6.21671533585,3.35595703125,8.85726261139
1504376084303762021,-6.20532178879,3.46549868584,8.88807487488
1504376084463197542,-6.1915473938,3.57240271568,8.91346931458
1504376084634894938,-6.17836666107,3.66921520233,8.94340515137
1504376084778905094,-6.16262483597,3.76554083824,8.97777080536
1504376084928992073,-6.14448833466,3.87091970444,8.99569320679
1504376085105534365,-6.12923955917,3.98827123642,8.98993301392
1504376085397867126,-6.10583543777,4.23286437988,8.99580669403
1504376085575959001,-6.09369039536,4.35413789749,9.02007961273
1504376085710737855,-6.0866856575,4.47016954422,9.0441570282
1504376085868756189,-6.0808391571,4.59193181992,9.07645988464
1504376086038548376,-6.06986951828,4.69821834564,9.09403800964
1504376086183906710,-6.05256414413,4.79544210434,9.11040306091
1504376086330174522,-6.028028965,4.89096689224,9.11496162415
1504376086491302387,-6.0072350502,4.98293161392,9.10206890106
1504376086642816814,-5.99387168884,5.07573652267,9.08223247528
1504376086801692856,-5.98263978958,5.17310762405,9.07879066467
1504376086950738481,-5.96710824966,5.26596832275,9.11071014404
1504376087107291971,-5.9510679245,5.36318397522,9.15064811707
1504376087271046502,-5.93403482437,5.46923446655,9.17278862
1504376087439420513,-5.91669178009,5.56907892227,9.17534923553
1504376087585240877,-5.90229129791,5.66659545898,9.18434143066
1504376087732584680,-5.87182950974,5.76809835434,9.19007873535
1504376087915941034,-5.83132171631,5.86840677261,9.18688774109
1504376088047387232,-5.78665733337,5.96892690659,9.19214248657
1504376088213230565,-5.74999952316,6.06198596954,9.20686531067
1504376088523886503,-5.70213460922,6.21441745758,9.22283840179
1504376088682758170,-5.68017578125,6.2846493721,9.21843147278
1504376089005691556,-5.65146017075,6.45258283615,9.24767780304
1504376089149633222,-5.64273309708,6.53512716293,9.28002643585
1504376089465356191,-5.62043237686,6.70842933655,9.35364246368
1504376089620016712,-5.60957145691,6.80328226089,9.42083358765
1504376089795713900,-5.58950090408,6.89719486237,9.47309303284
1504376089921594317,-5.57323551178,6.99997282028,9.49206829071
1504376090087570827,-5.56080150604,7.10608005524,9.49946975708
1504376090259296713,-5.53582763672,7.21476650238,9.50336551666
1504376090396091817,-5.51049137115,7.31433677673,9.51723670959
1504376090566323380,-5.48048639297,7.41415500641,9.53417015076
1504376090726807755,-5.45202350616,7.50862407684,9.55877399445
1504376090861903797,-5.42690134048,7.60386323929,9.57824325562
1504376091011599370,-5.41095018387,7.70167684555,9.5914888382
1504376091181510724,-5.39951562881,7.79249429703,9.60203933716
1504376091331217547,-5.39133071899,7.88824272156,9.61307811737
1504376091498393016,-5.3834066391,7.9839925766,9.61629199982
1504376091641084162,-5.38090658188,8.07398605347,9.6273059845
1504376091796415047,-5.37023591995,8.14256572723,9.6287279129
1504376091930476974,-5.34598684311,8.21273517609,9.62891292572
1504376092107757495,-5.31483697891,8.28430080414,9.63482379913
1504376092256510256,-5.28256702423,8.36215686798,9.65232563019
1504376092409948381,-5.24816131592,8.42771625519,9.67032623291
1504376092569352756,-5.2336101532,8.49161529541,9.67315196991
1504376092717943277,-5.21537923813,8.54472064972,9.66768932343
1504376092867844944,-5.19168949127,8.59283065796,9.64159965515
1504376093035601923,-5.16560649872,8.64420127869,9.60666847229
1504376093188140673,-5.14410495758,8.69047164917,9.565990448
1504376093358333486,-5.11855363846,8.7458562851,9.52688503265
1504376093502104371,-5.09067821503,8.80551624298,9.48840999603
1504376093654883174,-5.06461143494,8.8665561676,9.45305919647
1504376093804539736,-5.03510141373,8.93312644958,9.42697715759
1504376093968607757,-5.0093255043,8.98996829987,9.40881824493
1504376094116826455,-4.98246765137,9.04236698151,9.39015579224
1504376094277961351,-4.95486402512,9.08939361572,9.37980365753
1504376094429936768,-4.93963003159,9.14079284668,9.36109638214
1504376094593145518,-4.9440369606,9.18814468384,9.33805465698
1504376094733538174,-4.95469713211,9.23305130005,9.33218955994
1504376094906156612,-4.96149969101,9.2684173584,9.32728672028
1504376095062487810,-4.9662437439,9.30145359039,9.32776451111
1504376095193272706,-4.97429847717,9.32584857941,9.32926464081
1504376095359916873,-4.98827981949,9.34501552582,9.33127212524
1504376095514187133,-5.0111207962,9.36254024506,9.3285074234
1504376095667543384,-5.03723573685,9.37739849091,9.32650470734
1504376095822560623,-5.06641626358,9.38776302338,9.31164550781
1504376095988422811,-5.09527111053,9.40345478058,9.29212284088
1504376096128509009,-5.12857818604,9.41089057922,9.2867565155
1504376096285642551,-5.16501760483,9.40900325775,9.28084087372
1504376096454009895,-5.21335077286,9.39370441437,9.26459407806
1504376096594097603,-5.26184606552,9.37153816223,9.24178409576
1504376096746817499,-5.30802965164,9.34294700623,9.2191362381
1504376096917051301,-5.35662841797,9.31065750122,9.19958686829
1504376097062898385,-5.40746021271,9.27681541443,9.20051670074
1504376097209367916,-5.46491765976,9.22574234009,9.22551059723
1504376097364050468,-5.53017044067,9.17184829712,9.27314949036
1504376097519484270,-5.59191179276,9.11807346344,9.31104660034
1504376097691603802,-5.65772485733,9.06307506561,9.34077644348
1504376097836845781,-5.72339296341,9.00166225433,9.34413337708
1504376097988034375,-5.78307771683,8.93847084045,9.3379201889
1504376098149275469,-5.84778785706,8.87476539612,9.34436702728
1504376098296049792,-5.91957712173,8.80828285217,9.35184669495
1504376098448088177,-5.99634647369,8.74119949341,9.35165500641
1504376098625151407,-6.07818889618,8.67961406708,9.35269546509
1504376098764604532,-6.16805362701,8.61751747131,9.36792087555
1504376098917897813,-6.26490020752,8.55186367035,9.39015007019
1504376099089065782,-6.36219596863,8.48310661316,9.40779590607
1504376099226279480,-6.45525789261,8.41044521332,9.41982364655
1504376099383982657,-6.54291248322,8.33806037903,9.43018531799
1504376099536692136,-6.63577985764,8.26926040649,9.43021011353
1504376099698731772,-6.72472763062,8.20312595367,9.424700737
1504376099887275314,-6.81041240692,8.13227939606,9.41662216187
1504376100014497397,-6.885181427,8.06285476685,9.41837882996
1504376100181412554,-6.95773696899,7.99291181564,9.42136764526
1504376100333585314,-7.03981590271,7.92659902573,9.43224620819
1504376100484592606,-7.12844371796,7.86124897003,9.44122695923
1504376100637689273,-7.22175598145,7.79628753662,9.43180751801
1504376100945472398,-7.39652967453,7.65815448761,9.39649868011
1504376101097743127,-7.48540782928,7.59949588776,9.38792610168
1504376101406606825,-7.66206169128,7.48384571075,9.37067127228
1504376101571249221,-7.75757884979,7.42619085312,9.37753486633
1504376101897097659,-7.95103120804,7.29283905029,9.38259029388
1504376102034317659,-8.04964733124,7.22142553329,9.38099479675
1504376102235720368,-8.12485027313,7.157954216,9.38142967224
1504376102379917347,-8.19910335541,7.09644603729,9.38668727875
1504376102507615524,-8.27367019653,7.03472280502,9.39402580261
1504376102700498597,-8.35383033752,6.97025823593,9.38426589966
1504376102834657972,-8.43826007843,6.90035009384,9.36983585358
1504376102975052504,-8.51458358765,6.82550859451,9.36194229126
1504376103173336983,-8.58945846558,6.75013589859,9.36543369293
1504376103314283077,-8.66396808624,6.67803478241,9.36421871185
1504376103440225473,-8.73833370209,6.60925245285,9.35383701324
1504376103634782713,-8.81515026093,6.52510643005,9.33666038513
1504376103749660838,-8.89193248749,6.43533945084,9.30860900879
1504376103910149223,-8.97147083282,6.35302877426,9.27356147766
1504376104096707192,-9.05087089539,6.28281450272,9.22772979736
1504376104222135942,-9.12781524658,6.22206687927,9.18967819214
1504376104372282244,-9.20897197723,6.17312049866,9.17354869843
1504376104566072765,-9.30035209656,6.12367153168,9.16404438019
1504376104679821568,-9.39082717896,6.07374668121,9.15762805939
1504376104836812401,-9.48147583008,6.02101182938,9.16765499115
1504376105022551464,-9.56754398346,5.97062110901,9.18093585968
1504376105141195630,-9.64921569824,5.91893291473,9.19829273224
1504376105297887558,-9.72703552246,5.86107254028,9.1979598999
1504376105483558131,-9.79810428619,5.79477119446,9.18249797821
1504376105607547349,-9.87227153778,5.7295088768,9.16474723816
1504376105773036256,-9.94378376007,5.65833806992,9.14315128326
1504376105940908079,-10.0187425613,5.59495067596,9.12250804901
1504376106075120423,-10.1071643829,5.53271484375,9.09988689423
1504376106228915371,-10.2003679276,5.47638750076,9.07405567169
1504376106394153392,-10.290137291,5.42166852951,9.05436420441
1504376106543507090,-10.3804597855,5.36359834671,9.04218101501
1504376106699281829,-10.4720563889,5.30637073517,9.01710987091
1504376106863987403,-10.5695075989,5.25616502762,8.98235416412
1504376107003225892,-10.6681175232,5.20397806168,8.96197509766
1504376107173873236,-10.7599658966,5.15415334702,8.95005130768
1504376107327512924,-10.8437433243,5.10144138336,8.94512748718
1504376107471641778,-10.9139270782,5.04894971848,8.95921897888
1504376107644221518,-10.9674453735,4.99616670609,8.98295783997
1504376107793624487,-11.01653862,4.94906949997,9.01745414734
1504376107945012560,-11.0586595535,4.91275405884,9.05275917053
1504376108108240320,-11.0942697525,4.8859333992,9.08545303345
1504376108264220476,-11.1169652939,4.86671972275,9.10855102539
1504376108408447664,-11.1346006393,4.84351348877,9.13486289978
1504376108583550477,-11.138461113,4.82480669022,9.15742874146
1504376108727128081,-11.1445837021,4.80821180344,9.18009471893
1504376108884807769,-11.1418457031,4.78965568542,9.20040225983
1504376109064499071,-11.1263418198,4.76493406296,9.21629047394
1504376109198265425,-11.1098966599,4.74056434631,9.22827243805
1504376109367738602,-11.0818862915,4.7184920311,9.23516368866
1504376109505875165,-11.0454273224,4.69121980667,9.24601173401
1504376109668092821,-11.0031461716,4.66450595856,9.2784948349
1504376109829324436,-10.9584350586,4.62914657593,9.32022857666
1504376109981707822,-10.9025554657,4.58834028244,9.34961509705
1504376110128206103,-10.8505439758,4.53424549103,9.36804771423
1504376110310957197,-10.8064680099,4.47405099869,9.3837518692
1504376110441198707,-10.7744503021,4.40933656693,9.40425300598
1504376110592471832,-10.7515325546,4.34143161774,9.41337776184
1504376110779620843,-10.7311496735,4.27873420715,9.41163063049
1504376111058969229,-10.7231197357,4.18981266022,9.34185886383
1504376111225371833,-10.7403907776,4.16121101379,9.29624176025
1504376111528030375,-10.7990293503,4.12615633011,9.18106555939
1504376111688622250,-10.8328437805,4.12497425079,9.12192058563
1504376111999114646,-10.8941326141,4.15164613724,9.04717063904
1504376112140769854,-10.9196767807,4.1664648056,9.00993537903
1504376112451553448,-10.9650936127,4.20519304276,8.8984375
1504376112611720844,-10.9805984497,4.23080921173,8.82439422607
1504376112798018657,-10.990776062,4.27456331253,8.74996948242
1504376112914570063,-11.0039081573,4.33303594589,8.68731212616
1504376113079517720,-11.0193929672,4.40538644791,8.64625835419
1504376113263538605,-11.0374917984,4.49196147919,8.63184547424
1504376113380019335,-11.0521850586,4.58328819275,8.62201118469
1504376113543531626,-11.0661525726,4.69177770615,8.60113239288
1504376113855288866,-11.0952472687,4.93665075302,8.50744533539
1504376114010921523,-11.0986413956,5.05648851395,8.46699619293
1504376114197040012,-11.0945034027,5.17867898941,8.45712757111
1504376114319610950,-11.0892915726,5.30122947693,8.46178817749
1504376114479045950,-11.0848741531,5.42839479446,8.47601604462
1504376114661102669,-11.0753145218,5.57534837723,8.50046157837
1504376114780953294,-11.0705652237,5.72395372391,8.53319740295
1504376114950142721,-11.0667200089,5.87878465652,8.5850019455
1504376115123842982,-11.0683908463,6.03109312057,8.63174343109
1504376115261651523,-11.0771694183,6.16630792618,8.65155410767
1504376115421100117,-11.088927269,6.28374433517,8.65362930298
1504376115567862253,-11.1228885651,6.37837123871,8.64041137695
1504376115714784336,-11.1640663147,6.47484588623,8.61445140839
1504376115883561576,-11.2103977203,6.56580734253,8.60406970978
1504376116027958972,-11.2506017685,6.67138957977,8.6064453125
1504376116178422722,-11.2785320282,6.77820301056,8.60280323029
1504376116364413660,-11.29109478,6.88581562042,8.59300231934
1504376116491365847,-11.2917070389,6.98187303543,8.59309673309
1504376116647216941,-11.2899541855,7.07770013809,8.59504985809
1504376116822194702,-11.2683229446,7.17308616638,8.60429382324
1504376116962322046,-11.2686357498,7.261241436,8.62338829041
1504376117112869494,-11.2805271149,7.34679841995,8.64737033844
1504376117282247098,-11.2991609573,7.4302110672,8.66149616241
1504376117422605744,-11.32172966,7.51772451401,8.65778446198
1504376117577439286,-11.3359088898,7.60535144806,8.6656332016
1504376117749080484,-11.3575172424,7.70128536224,8.68843650818
1504376117889914494,-11.3859491348,7.80199480057,8.72111988068
1504376118043021005,-11.4194965363,7.89648532867,8.74338245392
1504376118218225432,-11.4531154633,7.99504899979,8.76117897034
1504376118355109234,-11.4960985184,8.08267879486,8.77063560486
1504376118509186213,-11.5395231247,8.17244243622,8.78475856781
1504376118680819651,-11.5786685944,8.26789283752,8.78957366943
1504376118825101318,-11.6106653214,8.3582239151,8.7920589447
1504376118985079026,-11.624587059,8.45059776306,8.78806304932
1504376119143046735,-11.6265201569,8.55038642883,8.76616668701
1504376119288786266,-11.628985405,8.65421104431,8.75150966644
1504376119442106266,-11.6333599091,8.7612323761,8.74015426636
1504376119617367100,-11.6275959015,8.8752412796,8.73499584198
1504376119913710642,-11.6099376678,9.09289455414,8.7214756012
1504376120078091579,-11.6043767929,9.21041870117,8.71372127533
1504376120222545694,-11.5986967087,9.32549285889,8.70558929443
1504376120382309757,-11.5891571045,9.42880058289,8.71486568451
1504376120551473559,-11.5852212906,9.5288028717,8.72885608673
1504376120692460226,-11.5881881714,9.62343883514,8.75501918793
1504376120845957361,-11.5924510956,9.71400928497,8.78203678131
1504376121026289288,-11.5901498795,9.81415843964,8.80636119843
1504376121164986424,-11.5867538452,9.91811561584,8.8359670639
1504376121314828664,-11.5903863907,10.024477005,8.85282039642
1504376121473266945,-11.5985031128,10.1293554306,8.86466026306
1504376121620091997,-11.6001319885,10.2348604202,8.8723526001
1504376121785310851,-11.6049852371,10.3345718384,8.85879993439
1504376121927812779,-11.6114091873,10.4293775558,8.83167934418
1504376122084068456,-11.6192941666,10.533452034,8.78964328766
1504376122263765956,-11.6276702881,10.6440706253,8.75059223175
1504376122395910487,-11.6407623291,10.7403678894,8.73358535767
1504376122561119498,-11.6339235306,10.8477010727,8.71813392639
1504376122862214967,-11.6298866272,11.0599050522,8.66065216064
1504376123020119602,-11.6364784241,11.14016819,8.63119316101
1504376123199640852,-11.651922226,11.2085561752,8.59767532349
1504376123343640488,-11.6608724594,11.2640810013,8.56972980499
1504376123493427207,-11.6637678146,11.3083763123,8.55551338196
1504376123665483978,-11.6674098969,11.346247673,8.55669307709
1504376123965868509,-11.6612281799,11.3835544586,8.5764541626
1504376124136570280,-11.6585884094,11.3849573135,8.57345962524
1504376124307428614,-11.6529808044,11.3796596527,8.58136749268
1504376124428748666,-11.6504592896,11.3706598282,8.61413955688
1504376124615379447,-11.652258873,11.3613538742,8.65296077728
1504376124902104604,-11.6364307404,11.3356351852,8.68091201782
1504376125062973406,-11.6207742691,11.3258581161,8.66178512573
1504376125240785542,-11.6123685837,11.3150444031,8.62870025635
1504376125388599083,-11.6026420593,11.3085842133,8.59553050995
1504376125521680698,-11.5930948257,11.3006753922,8.55945014954
1504376125700342209,-11.5863637924,11.288611412,8.51566791534
1504376125858870490,-11.5924110413,11.2795639038,8.43911457062
1504376125994186740,-11.5998153687,11.2843103409,8.34500312805
1504376126166283771,-11.6113004684,11.294626236,8.24875736237
1504376126332889188,-11.6215963364,11.3100671768,8.17625713348
1504376126466706949,-11.628080368,11.3296337128,8.11274814606
1504376126636633928,-11.6328830719,11.3376407623,8.03125286102
1504376126794049345,-11.6360416412,11.3327150345,7.94557952881
1504376126930456220,-11.6262969971,11.320766449,7.86407518387
1504376127261602939,-11.5402336121,11.2065420151,7.64306926727
1504376127396016897,-11.4620418549,11.0903806686,7.53145360947
1504376127574631377,-11.3642692566,10.9575271606,7.43013334274
1504376127723034710,-11.2422332764,10.81873703,7.33680772781
1504376127860105283,-11.106007576,10.6777515411,7.2673406601
1504376128032469085,-10.949213028,10.5367841721,7.19191789627
1504376128188446585,-10.7846269608,10.3908338547,7.11199617386
1504376128323108513,-10.6127357483,10.2452087402,7.02663755417
1504376128496477367,-10.4333047867,10.1009578705,6.92916440964
1504376128657427627,-10.270116806,9.96042728424,6.82085895538
1504376128792540544,-10.1022014618,9.80735778809,6.70838308334
1504376128956672107,-9.94070053101,9.6684551239,6.58967828751
1504376129124012419,-9.79186630249,9.53514194489,6.4608168602
1504376129258504555,-9.66058444977,9.40201950073,6.33565759659
1504376129417818722,-9.52320480347,9.27337932587,6.20213413239
1504376129589969243,-9.38650417328,9.14342880249,6.06051635742
1504376129734388878,-9.25424289703,9.01055145264,5.91251850128
1504376129886007993,-9.12550926208,8.87272357941,5.7744011879
1504376130059958722,-8.99423694611,8.72309112549,5.63031816483
1504376130199301066,-8.86704826355,8.54465675354,5.48693799973
1504376130362349868,-8.75778484344,8.36716747284,5.34468889236
1504376130523305181,-8.65663337708,8.18912410736,5.20275259018
1504376130676493150,-8.55698776245,8.00209331512,5.0699930191
1504376130817350233,-8.45795631409,7.8098320961,4.96376419067
1504376130985628619,-8.36308383942,7.60549688339,4.85008716583
1504376131136987577,-8.25975227356,7.37273979187,4.71598339081
1504376131294556275,-8.16361236572,7.14364242554,4.58707618713
1504376131462614661,-8.0732755661,6.92063140869,4.46180009842
1504376131598813046,-7.99066352844,6.72002410889,4.35741901398
1504376131758526171,-7.90001869202,6.52183151245,4.26416254044
1504376131945698828,-7.81532669067,6.32836055756,4.17932510376
1504376132067882682,-7.73578548431,6.13919496536,4.07014608383
1504376132223795286,-7.6594171524,5.95567798615,3.92540597916
1504376132390078307,-7.59601736069,5.78110265732,3.77161240578
1504376132689023620,-7.51013040543,5.46355342865,3.50573134422
1504376132867065599,-7.47925853729,5.31804561615,3.35816168785
1504376133167671277,-7.44065332413,5.12809801102,3.05480718613
1504376133327778464,-7.42474794388,5.07300186157,2.88874793053
1504376133628412371,-7.3912191391,5.04481983185,2.54884624481
1504376133795852579,-7.35179281235,5.05759143829,2.37420797348
1504376133978234819,-7.31698942184,5.07257461548,2.20321297646
1504376134098116798,-7.29163742065,5.09129047394,2.03771829605
1504376134271051330,-7.27834796906,5.11572742462,1.87146437168
1504376134437224351,-7.27328824997,5.1441655159,1.71958661079
1504376134563276903,-7.27197265625,5.16776847839,1.56666755676
1504376134727681851,-7.27814626694,5.18926763535,1.42129504681
1504376134896066018,-7.29430294037,5.20668935776,1.28186964989
1504376135025501591,-7.31800222397,5.21600484848,1.15315294266
1504376135202545132,-7.34526109695,5.22346162796,1.03062868118
1504376135359422268,-7.37840986252,5.23966789246,0.913763582706
1504376135492544508,-7.42052364349,5.2645149231,0.801017940044
1504376135678359664,-7.47314834595,5.29689884186,0.68093085289
1504376135821473987,-7.52463769913,5.32818698883,0.5653449893
1504376135957129821,-7.55160045624,5.3503651619,0.469016164541
1504376136133219560,-7.56108427048,5.36589336395,0.383314847946
1504376136294027790,-7.56097841263,5.37664890289,0.307987421751
1504376136430408571,-7.53637599945,5.37949037552,0.24309951067
1504376136580071019,-7.50669574738,5.37959527969,0.165428042412
1504376136762118259,-7.48277950287,5.37612962723,0.0905847772956
1504376136898727790,-7.46118164062,5.36559057236,0.0207502413541
1504376137042056957,-7.4438662529,5.35010480881,-0.054364271462
1504376137232653415,-7.43818426132,5.34787607193,-0.131549447775
1504376137376558676,-7.43658542633,5.34074497223,-0.203045099974
1504376137505439405,-7.43898916245,5.33369016647,-0.277556598186
1504376137701018936,-7.44414043427,5.33002853394,-0.348181962967
1504376137824595759,-7.4491558075,5.32775640488,-0.417718440294
1504376137979467843,-7.45155477524,5.31398963928,-0.477298796177
1504376138181244718,-7.4559264183,5.30269098282,-0.535264134407
1504376138306390187,-7.46261978149,5.298807621,-0.604528844357
1504376138440817791,-7.47019100189,5.30190610886,-0.669085204601
1504376138625996593,-7.47644042969,5.31457662582,-0.723523676395
1504376138769851229,-7.48274612427,5.32500171661,-0.771849155426
1504376138910987167,-7.4882273674,5.33004951477,-0.806607604027
1504376139091848885,-7.49304246902,5.32941865921,-0.845832228661
1504376139214506386,-7.49814176559,5.33387231827,-0.893691778183
1504376139369572688,-7.50486373901,5.34358882904,-0.923433303833
1504376139556901282,-7.50585794449,5.35739994049,-0.956903100014
1504376139679228000,-7.50444889069,5.36999464035,-0.992214202881
1504376139831999876,-7.50461673737,5.37869691849,-1.01900732517
1504376140011801334,-7.49601125717,5.38765478134,-1.05560743809
1504376140179100293,-7.48765850067,5.39161777496,-1.09223270416
1504376140305840136,-7.4790225029,5.3967871666,-1.12681043148
1504376140479030605,-7.47043180466,5.40436983109,-1.16534018517
1504376140642353157,-7.4697265625,5.41084623337,-1.20407736301
1504376140786303574,-7.47187805176,5.40954303741,-1.23035514355
1504376140948539720,-7.47578620911,5.40612363815,-1.25143635273
1504376141084630658,-7.48283052444,5.40091609955,-1.2719553709
1504376141244198783,-7.4900636673,5.39647293091,-1.28765535355
1504376141414053887,-7.49547767639,5.39282798767,-1.30038774014
1504376141554865919,-7.5016374588,5.39471340179,-1.29443264008
1504376141706518367,-7.50400972366,5.39607524872,-1.28948032856
1504376141869283627,-7.50712680817,5.39692401886,-1.30112278461
1504376142018734252,-7.50916481018,5.39977121353,-1.30234253407
1504376142181432117,-7.50859355927,5.39795207977,-1.30460107327
1504376142337599982,-7.5059633255,5.39885091782,-1.30711734295
1504376142481358940,-7.50238227844,5.39932870865,-1.29945993423
1504376142634859930,-7.50115633011,5.39883708954,-1.30238866806
1504376142814310190,-7.49899625778,5.40355348587,-1.3004001379
1504376142958614461,-7.49921560287,5.41004276276,-1.29876351357
1504376143114098576,-7.50387191772,5.41889572144,-1.2963578701
1504376143274709409,-7.5105676651,5.42989253998,-1.29740417004
1504376143419404670,-7.51646089554,5.44208526611,-1.29563546181
1504376143582393316,-7.53283500671,5.45543622971,-1.28633129597
1504376143740923004,-7.54552698135,5.46643877029,-1.28342831135
1504376143878083889,-7.55421113968,5.47560405731,-1.27857649326
1504376144048602535,-7.55725002289,5.48408317566,-1.27173399925
1504376144191494879,-7.55777263641,5.49238204956,-1.2685945034
1504376144337619619,-7.55844497681,5.49609136581,-1.25867283344
1504376144649577119,-7.56861257553,5.49962854385,-1.26275062561
1504376144804797900,-7.58256721497,5.5016245842,-1.26411890984
1504376145125278005,-7.60494804382,5.51778268814,-1.2657430172
1504376145279589880,-7.61263227463,5.52697229385,-1.26616001129
1504376145467728942,-7.62427806854,5.53594923019,-1.267796278
1504376145621149724,-7.63946199417,5.54685783386,-1.26580655575
1504376145741414151,-7.65867900848,5.55848503113,-1.26998627186
1504376146081949255,-7.69782543182,5.57960414886,-1.26507174969
1504376146210837901,-7.71376752853,5.59029054642,-1.26000225544
1504376146410916912,-7.73558473587,5.59516000748,-1.25425350666
1504376146523385714,-7.75682544708,5.5987405777,-1.25020468235
1504376146683473214,-7.77589988708,5.59847259521,-1.25297701359
1504376146987074516,-7.80014467239,5.5843296051,-1.26495075226
1504376147143031079,-7.80012321472,5.58030366898,-1.27272832394
1504376147448065975,-7.80920696259,5.57528066635,-1.28359758854
1504376147607375871,-7.82085227966,5.5762181282,-1.28541457653
1504376147912296392,-7.83877515793,5.55762481689,-1.28135025501
1504376148069254569,-7.84254026413,5.55432319641,-1.27967083454
1504376148250787799,-7.84369277954,5.55139923096,-1.27353072166
1504376148381100663,-7.84829950333,5.5534901619,-1.26714324951
1504376148529694986,-7.86155509949,5.55873441696,-1.26692855358
1504376148709553059,-7.87956094742,5.56548881531,-1.26642918587
1504376148836187435,-7.90056610107,5.57274150848,-1.2570400238
1504376149000439466,-7.91117429733,5.5747461319,-1.25616300106
1504376149302898841,-7.94305419922,5.59204339981,-1.25751721859
1504376149468212435,-7.96544837952,5.60430955887,-1.25683295727
1504376149631728789,-7.9795384407,5.61144971848,-1.25107526779
1504376149777219935,-7.99732685089,5.62821245193,-1.24698996544
1504376149933264883,-8.01265907288,5.64156961441,-1.2485319376
1504376150096325613,-8.02308559418,5.65270757675,-1.26423180103
1504376150247861915,-8.02934169769,5.6673283577,-1.2723954916
1504376150398212123,-8.03073310852,5.66945743561,-1.27060687542
1504376150561241186,-8.03189563751,5.66299772263,-1.26903426647
1504376150697838634,-8.03521060944,5.65576028824,-1.27191376686
1504376150867433426,-8.04122066498,5.64727401733,-1.27040290833
1504376151021205874,-8.04899501801,5.64118051529,-1.26496016979
1504376151166707332,-8.05679988861,5.64177179337,-1.25904273987
1504376151329695353,-8.06893539429,5.64530801773,-1.25663423538
1504376151478656707,-8.08130741119,5.65396404266,-1.25246989727
1504376151624261812,-8.08739185333,5.67059850693,-1.24642539024
1504376151789661603,-8.09381961823,5.6816649437,-1.24245965481
1504376151938623322,-8.10047340393,5.69264316559,-1.2431885004
1504376152090862645,-8.10672187805,5.70350265503,-1.24603223801
1504376152270106656,-8.11301898956,5.71429681778,-1.24813985825
1504376152408959104,-8.12303066254,5.7230758667,-1.24304115772
1504376152560081344,-8.12941169739,5.73231172562,-1.24130237103
1504376152723952698,-8.13045883179,5.73855829239,-1.24096548557
1504376152871173688,-8.12940216064,5.74352312088,-1.23878443241
1504376153019345146,-8.12955379486,5.74895906448,-1.23126065731
1504376153196499677,-8.12590503693,5.75036621094,-1.22200787067
1504376153333336448,-8.12310314178,5.75321483612,-1.22047817707
1504376153482637126,-8.12215900421,5.75580406189,-1.2159883976
1504376153637347126,-8.1240196228,5.75424814224,-1.20671093464
1504376153795881136,-8.12224960327,5.75794029236,-1.20097911358
1504376153943335355,-8.1178560257,5.76193237305,-1.19987905025
1504376154116899626,-8.1126499176,5.76497840881,-1.20626306534
1504376154259326345,-8.10970211029,5.76806306839,-1.21109688282
1504376154403884939,-8.11340713501,5.76939153671,-1.213352561
1504376154559986970,-8.11452484131,5.77330780029,-1.21683228016
